{"1100015":{"id":1100015,"name":"Alta Floresta d'Oeste","region":"Rondônia","population":22728,"lat":-11.9283,"lon":-61.9953},"1100023":{"id":1100023,"name":"Ariquemes","region":"Rondônia","population":109523,"lat":-9.90571,"lon":-63.0325},"1100031":{"id":1100031,"name":"Cabixi","region":"Rondônia","population":5188,"lat":-13.4945,"lon":-60.552},"1100049":{"id":1100049,"name":"Cacoal","region":"Rondônia","population":85893,"lat":-11.4343,"lon":-61.4562},"1100056":{"id":1100056,"name":"Cerejeiras","region":"Rondônia","population":16204,"lat":-13.187,"lon":-60.8168},"1100064":{"id":1100064,"name":"Colorado do Oeste","region":"Rondônia","population":15544,"lat":-13.1174,"lon":-60.5454},"1100072":{"id":1100072,"name":"Corumbiara","region":"Rondônia","population":7220,"lat":-12.9551,"lon":-60.8947},"1100080":{"id":1100080,"name":"Costa Marques","region":"Rondônia","population":18798,"lat":-12.4367,"lon":-64.228},"1100098":{"id":1100098,"name":"Espigão d'Oeste","region":"Rondônia","population":32695,"lat":-11.5266,"lon":-61.0252},"1100106":{"id":1100106,"name":"Guajará-Mirim","region":"Rondônia","population":46556,"lat":-10.7889,"lon":-65.3296},"1100114":{"id":1100114,"name":"Jaru","region":"Rondônia","population":51620,"lat":-10.4318,"lon":-62.4788},"1100122":{"id":1100122,"name":"Ji-Paraná","region":"Rondônia","population":130009,"lat":-10.8777,"lon":-61.9322},"1100130":{"id":1100130,"name":"Machadinho d'Oeste","region":"Rondônia","population":40867,"lat":-9.44363,"lon":-61.9818},"1100148":{"id":1100148,"name":"Nova Brasilândia d'Oeste","region":"Rondônia","population":20489,"lat":-11.7247,"lon":-62.3127},"1100155":{"id":1100155,"name":"Ouro Preto do Oeste","region":"Rondônia","population":35737,"lat":-10.7167,"lon":-62.2565},"1100189":{"id":1100189,"name":"Pimenta Bueno","region":"Rondônia","population":36881,"lat":-11.672,"lon":-61.198},"1100205":{"id":1100205,"name":"Porto Velho","region":"Rondônia","population":539354,"lat":-8.76077,"lon":-63.8999},"1100254":{"id":1100254,"name":"Presidente Médici","region":"Rondônia","population":18571,"lat":-11.169,"lon":-61.8986},"1100262":{"id":1100262,"name":"Rio Crespo","region":"Rondônia","population":3804,"lat":-9.69965,"lon":-62.9011},"1100288":{"id":1100288,"name":"Rolim de Moura","region":"Rondônia","population":55407,"lat":-11.7271,"lon":-61.7714},"1100296":{"id":1100296,"name":"Santa Luzia d'Oeste","region":"Rondônia","population":6216,"lat":-11.9074,"lon":-61.7777},"1100304":{"id":1100304,"name":"Vilhena","region":"Rondônia","population":102211,"lat":-12.7502,"lon":-60.1488},"1100320":{"id":1100320,"name":"São Miguel do Guaporé","region":"Rondônia","population":23077,"lat":-11.6953,"lon":-62.7192},"1100338":{"id":1100338,"name":"Nova Mamoré","region":"Rondônia","population":31392,"lat":-10.4077,"lon":-65.3346},"1100346":{"id":1100346,"name":"Alvorada d'Oeste","region":"Rondônia","population":14106,"lat":-11.3463,"lon":-62.2847},"1100379":{"id":1100379,"name":"Alto Alegre dos Parecis","region":"Rondônia","population":13255,"lat":-12.132,"lon":-61.835},"1100403":{"id":1100403,"name":"Alto Paraíso","region":"Rondônia","population":21847,"lat":-9.71429,"lon":-63.3188},"1100452":{"id":1100452,"name":"Buritis","region":"Rondônia","population":40356,"lat":-10.1943,"lon":-63.8324},"1100502":{"id":1100502,"name":"Novo Horizonte do Oeste","region":"Rondônia","population":8329,"lat":-11.6961,"lon":-61.9951},"1100601":{"id":1100601,"name":"Cacaulândia","region":"Rondônia","population":6269,"lat":-10.349,"lon":-62.9043},"1100700":{"id":1100700,"name":"Campo Novo de Rondônia","region":"Rondônia","population":14266,"lat":-10.5712,"lon":-63.6266},"1100809":{"id":1100809,"name":"Candeias do Jamari","region":"Rondônia","population":27388,"lat":-8.7907,"lon":-63.7005},"1100908":{"id":1100908,"name":"Castanheiras","region":"Rondônia","population":2987,"lat":-11.4253,"lon":-61.9482},"1100924":{"id":1100924,"name":"Chupinguaia","region":"Rondônia","population":11472,"lat":-12.5611,"lon":-60.8877},"1100940":{"id":1100940,"name":"Cujubim","region":"Rondônia","population":26183,"lat":-9.36065,"lon":-62.5846},"1101005":{"id":1101005,"name":"Governador Jorge Teixeira","region":"Rondônia","population":7445,"lat":-10.61,"lon":-62.7371},"1101104":{"id":1101104,"name":"Itapuã do Oeste","region":"Rondônia","population":10641,"lat":-9.19687,"lon":-63.1809},"1101203":{"id":1101203,"name":"Ministro Andreazza","region":"Rondônia","population":9559,"lat":-11.196,"lon":-61.5174},"1101302":{"id":1101302,"name":"Mirante da Serra","region":"Rondônia","population":10818,"lat":-11.029,"lon":-62.6696},"1101401":{"id":1101401,"name":"Monte Negro","region":"Rondônia","population":16007,"lat":-10.2458,"lon":-63.29},"1101435":{"id":1101435,"name":"Nova União","region":"Rondônia","population":6895,"lat":-10.9068,"lon":-62.5564},"1101450":{"id":1101450,"name":"Parecis","region":"Rondônia","population":6198,"lat":-12.1754,"lon":-61.6032},"1101468":{"id":1101468,"name":"Pimenteiras do Oeste","region":"Rondônia","population":2148,"lat":-13.4823,"lon":-61.0471},"1101476":{"id":1101476,"name":"Primavera de Rondônia","region":"Rondônia","population":2776,"lat":-11.8295,"lon":-61.3153},"1101484":{"id":1101484,"name":"São Felipe d'Oeste","region":"Rondônia","population":5066,"lat":-11.9023,"lon":-61.5026},"1101492":{"id":1101492,"name":"São Francisco do Guaporé","region":"Rondônia","population":20681,"lat":-12.052,"lon":-63.568},"1101500":{"id":1101500,"name":"Seringueiras","region":"Rondônia","population":11851,"lat":-11.8055,"lon":-63.0182},"1101559":{"id":1101559,"name":"Teixeirópolis","region":"Rondônia","population":4233,"lat":-10.9056,"lon":-62.242},"1101609":{"id":1101609,"name":"Theobroma","region":"Rondônia","population":10395,"lat":-10.2483,"lon":-62.3538},"1101708":{"id":1101708,"name":"Urupá","region":"Rondônia","population":11272,"lat":-11.1261,"lon":-62.3639},"1101757":{"id":1101757,"name":"Vale do Anari","region":"Rondônia","population":11377,"lat":-9.86215,"lon":-62.1876},"1101807":{"id":1101807,"name":"Vale do Paraíso","region":"Rondônia","population":6656,"lat":-10.4465,"lon":-62.1352},"1200013":{"id":1200013,"name":"Acrelândia","region":"Acre","population":15490,"lat":-9.82581,"lon":-66.8972},"1200054":{"id":1200054,"name":"Assis Brasil","region":"Acre","population":7534,"lat":-10.9298,"lon":-69.5738},"1200104":{"id":1200104,"name":"Brasiléia","region":"Acre","population":26702,"lat":-10.995,"lon":-68.7497},"1200138":{"id":1200138,"name":"Bujari","region":"Acre","population":10420,"lat":-9.81528,"lon":-67.955},"1200179":{"id":1200179,"name":"Capixaba","region":"Acre","population":12008,"lat":-10.566,"lon":-67.686},"1200203":{"id":1200203,"name":"Cruzeiro do Sul","region":"Acre","population":89072,"lat":-7.62762,"lon":-72.6756},"1200252":{"id":1200252,"name":"Epitaciolândia","region":"Acre","population":18696,"lat":-11.0188,"lon":-68.7341},"1200302":{"id":1200302,"name":"Feijó","region":"Acre","population":34884,"lat":-8.17054,"lon":-70.351},"1200328":{"id":1200328,"name":"Jordão","region":"Acre","population":8473,"lat":-9.43091,"lon":-71.8974},"1200336":{"id":1200336,"name":"Mâncio Lima","region":"Acre","population":19311,"lat":-7.61657,"lon":-72.8997},"1200344":{"id":1200344,"name":"Manoel Urbano","region":"Acre","population":9581,"lat":-8.83291,"lon":-69.2679},"1200351":{"id":1200351,"name":"Marechal Thaumaturgo","region":"Acre","population":19299,"lat":-8.93898,"lon":-72.7997},"1200385":{"id":1200385,"name":"Plácido de Castro","region":"Acre","population":19955,"lat":-10.2806,"lon":-67.1371},"1200393":{"id":1200393,"name":"Porto Walter","region":"Acre","population":12241,"lat":-8.26323,"lon":-72.7537},"1200401":{"id":1200401,"name":"Rio Branco","region":"Acre","population":413418,"lat":-9.97499,"lon":-67.8243},"1200427":{"id":1200427,"name":"Rodrigues Alves","region":"Acre","population":19351,"lat":-7.73864,"lon":-72.661},"1200435":{"id":1200435,"name":"Santa Rosa do Purus","region":"Acre","population":6717,"lat":-9.44652,"lon":-70.4902},"1200450":{"id":1200450,"name":"Senador Guiomard","region":"Acre","population":23236,"lat":-10.1497,"lon":-67.7362},"1200500":{"id":1200500,"name":"Sena Madureira","region":"Acre","population":46511,"lat":-9.06596,"lon":-68.6571},"1200609":{"id":1200609,"name":"Tarauacá","region":"Acre","population":43151,"lat":-8.15697,"lon":-70.7722},"1200708":{"id":1200708,"name":"Xapuri","region":"Acre","population":19596,"lat":-10.6516,"lon":-68.4969},"1200807":{"id":1200807,"name":"Porto Acre","region":"Acre","population":18824,"lat":-9.58138,"lon":-67.5478},"1300029":{"id":1300029,"name":"Alvarães","region":"Amazonas","population":16220,"lat":-3.22727,"lon":-64.8007},"1300060":{"id":1300060,"name":"Amaturá","region":"Amazonas","population":11736,"lat":-3.37455,"lon":-68.2005},"1300086":{"id":1300086,"name":"Anamã","region":"Amazonas","population":13956,"lat":-3.56697,"lon":-61.3963},"1300102":{"id":1300102,"name":"Anori","region":"Amazonas","population":21477,"lat":-3.74603,"lon":-61.6575},"1300144":{"id":1300144,"name":"Apuí","region":"Amazonas","population":22359,"lat":-7.19409,"lon":-59.896},"1300201":{"id":1300201,"name":"Atalaia do Norte","region":"Amazonas","population":20398,"lat":-4.37055,"lon":-70.1967},"1300300":{"id":1300300,"name":"Autazes","region":"Amazonas","population":40290,"lat":-3.58574,"lon":-59.1256},"1300409":{"id":1300409,"name":"Barcelos","region":"Amazonas","population":27638,"lat":-0.983373,"lon":-62.9311},"1300508":{"id":1300508,"name":"Barreirinha","region":"Amazonas","population":32483,"lat":-2.79886,"lon":-57.0679},"1300607":{"id":1300607,"name":"Benjamin Constant","region":"Amazonas","population":43935,"lat":-4.37768,"lon":-70.0342},"1300631":{"id":1300631,"name":"Beruri","region":"Amazonas","population":20093,"lat":-3.89874,"lon":-61.3616},"1300680":{"id":1300680,"name":"Boa Vista do Ramos","region":"Amazonas","population":19626,"lat":-2.97409,"lon":-57.5873},"1300706":{"id":1300706,"name":"Boca do Acre","region":"Amazonas","population":34635,"lat":-8.74232,"lon":-67.3919},"1300805":{"id":1300805,"name":"Borba","region":"Amazonas","population":41748,"lat":-4.39154,"lon":-59.5874},"1300839":{"id":1300839,"name":"Caapiranga","region":"Amazonas","population":13283,"lat":-3.31537,"lon":-61.2206},"1300904":{"id":1300904,"name":"Canutama","region":"Amazonas","population":15807,"lat":-6.52582,"lon":-64.3953},"1301001":{"id":1301001,"name":"Carauari","region":"Amazonas","population":28508,"lat":-4.88161,"lon":-66.9086},"1301100":{"id":1301100,"name":"Careiro","region":"Amazonas","population":38348,"lat":-3.76803,"lon":-60.369},"1301159":{"id":1301159,"name":"Careiro da Várzea","region":"Amazonas","population":30846,"lat":-3.314,"lon":-59.5557},"1301209":{"id":1301209,"name":"Coari","region":"Amazonas","population":85910,"lat":-4.09412,"lon":-63.1441},"1301308":{"id":1301308,"name":"Codajás","region":"Amazonas","population":29168,"lat":-3.83053,"lon":-62.0658},"1301407":{"id":1301407,"name":"Eirunepé","region":"Amazonas","population":35700,"lat":-6.65677,"lon":-69.8662},"1301506":{"id":1301506,"name":"Envira","region":"Amazonas","population":20393,"lat":-7.43789,"lon":-70.0281},"1301605":{"id":1301605,"name":"Fonte Boa","region":"Amazonas","population":17005,"lat":-2.52342,"lon":-66.0942},"1301654":{"id":1301654,"name":"Guajará","region":"Amazonas","population":16937,"lat":-7.53797,"lon":-72.5907},"1301704":{"id":1301704,"name":"Humaitá","region":"Amazonas","population":56144,"lat":-7.51171,"lon":-63.0327},"1301803":{"id":1301803,"name":"Ipixuna","region":"Amazonas","population":30436,"lat":-7.04791,"lon":-71.6934},"1301852":{"id":1301852,"name":"Iranduba","region":"Amazonas","population":49011,"lat":-3.27479,"lon":-60.19},"1301902":{"id":1301902,"name":"Itacoatiara","region":"Amazonas","population":102701,"lat":-3.13861,"lon":-58.4449},"1301951":{"id":1301951,"name":"Itamarati","region":"Amazonas","population":7814,"lat":-6.43852,"lon":-68.2437},"1302009":{"id":1302009,"name":"Itapiranga","region":"Amazonas","population":9230,"lat":-2.74081,"lon":-58.0293},"1302108":{"id":1302108,"name":"Japurá","region":"Amazonas","population":2251,"lat":-1.88237,"lon":-66.9291},"1302207":{"id":1302207,"name":"Juruá","region":"Amazonas","population":15106,"lat":-3.48438,"lon":-66.0718},"1302306":{"id":1302306,"name":"Jutaí","region":"Amazonas","population":13886,"lat":-2.75814,"lon":-66.7595},"1302405":{"id":1302405,"name":"Lábrea","region":"Amazonas","population":46882,"lat":-7.26413,"lon":-64.7948},"1302504":{"id":1302504,"name":"Manacapuru","region":"Amazonas","population":98502,"lat":-3.29066,"lon":-60.6216},"1302553":{"id":1302553,"name":"Manaquiri","region":"Amazonas","population":33049,"lat":-3.44078,"lon":-60.4612},"1302603":{"id":1302603,"name":"Manaus","region":"Amazonas","population":2219580,"lat":-3.11866,"lon":-60.0212},"1302702":{"id":1302702,"name":"Manicoré","region":"Amazonas","population":56583,"lat":-5.80462,"lon":-61.2895},"1302801":{"id":1302801,"name":"Maraã","region":"Amazonas","population":18261,"lat":-1.85313,"lon":-65.573},"1302900":{"id":1302900,"name":"Maués","region":"Amazonas","population":65040,"lat":-3.39289,"lon":-57.7067},"1303007":{"id":1303007,"name":"Nhamundá","region":"Amazonas","population":21443,"lat":-2.20793,"lon":-56.7112},"1303106":{"id":1303106,"name":"Nova Olinda do Norte","region":"Amazonas","population":38026,"lat":-3.90037,"lon":-59.094},"1303205":{"id":1303205,"name":"Novo Airão","region":"Amazonas","population":19928,"lat":-2.63637,"lon":-60.9434},"1303304":{"id":1303304,"name":"Novo Aripuanã","region":"Amazonas","population":26046,"lat":-5.12593,"lon":-60.3732},"1303403":{"id":1303403,"name":"Parintins","region":"Amazonas","population":115363,"lat":-2.63741,"lon":-56.729},"1303502":{"id":1303502,"name":"Pauini","region":"Amazonas","population":19522,"lat":-7.71311,"lon":-66.992},"1303536":{"id":1303536,"name":"Presidente Figueiredo","region":"Amazonas","population":37193,"lat":-2.02981,"lon":-60.0234},"1303569":{"id":1303569,"name":"Rio Preto da Eva","region":"Amazonas","population":34106,"lat":-2.7045,"lon":-59.6858},"1303601":{"id":1303601,"name":"Santa Isabel do Rio Negro","region":"Amazonas","population":25865,"lat":-0.410824,"lon":-65.0092},"1303700":{"id":1303700,"name":"Santo Antônio do Içá","region":"Amazonas","population":21243,"lat":-3.09544,"lon":-67.9463},"1303809":{"id":1303809,"name":"São Gabriel da Cachoeira","region":"Amazonas","population":46303,"lat":-0.11909,"lon":-67.084},"1303908":{"id":1303908,"name":"São Paulo de Olivença","region":"Amazonas","population":40073,"lat":-3.47292,"lon":-68.9646},"1303957":{"id":1303957,"name":"São Sebastião do Uatumã","region":"Amazonas","population":14352,"lat":-2.55915,"lon":-57.8731},"1304005":{"id":1304005,"name":"Silves","region":"Amazonas","population":9230,"lat":-2.81748,"lon":-58.248},"1304062":{"id":1304062,"name":"Tabatinga","region":"Amazonas","population":67182,"lat":-4.2416,"lon":-69.9383},"1304104":{"id":1304104,"name":"Tapauá","region":"Amazonas","population":17015,"lat":-5.62085,"lon":-63.1808},"1304203":{"id":1304203,"name":"Tefé","region":"Amazonas","population":59547,"lat":-3.36822,"lon":-64.7193},"1304237":{"id":1304237,"name":"Tonantins","region":"Amazonas","population":18897,"lat":-2.86582,"lon":-67.7919},"1304260":{"id":1304260,"name":"Uarini","region":"Amazonas","population":13690,"lat":-2.99609,"lon":-65.1133},"1304302":{"id":1304302,"name":"Urucará","region":"Amazonas","population":16130,"lat":-2.52936,"lon":-57.7538},"1304401":{"id":1304401,"name":"Urucurituba","region":"Amazonas","population":23585,"lat":-3.12841,"lon":-58.1496},"1400027":{"id":1400027,"name":"Amajari","region":"Roraima","population":13185,"lat":3.64571,"lon":-61.3692},"1400050":{"id":1400050,"name":"Alto Alegre","region":"Roraima","population":15380,"lat":2.98858,"lon":-61.3072},"1400100":{"id":1400100,"name":"Boa Vista","region":"Roraima","population":419652,"lat":2.82384,"lon":-60.6753},"1400159":{"id":1400159,"name":"Bonfim","region":"Roraima","population":12557,"lat":3.36161,"lon":-59.8333},"1400175":{"id":1400175,"name":"Cantá","region":"Roraima","population":18799,"lat":2.60994,"lon":-60.6058},"1400209":{"id":1400209,"name":"Caracaraí","region":"Roraima","population":22283,"lat":1.82766,"lon":-61.1304},"1400233":{"id":1400233,"name":"Caroebe","region":"Roraima","population":10383,"lat":0.884203,"lon":-59.6959},"1400282":{"id":1400282,"name":"Iracema","region":"Roraima","population":12296,"lat":2.18305,"lon":-61.0415},"1400308":{"id":1400308,"name":"Mucajaí","region":"Roraima","population":18172,"lat":2.43998,"lon":-60.9096},"1400407":{"id":1400407,"name":"Normandia","region":"Roraima","population":11532,"lat":3.8853,"lon":-59.6204},"1400456":{"id":1400456,"name":"Pacaraima","region":"Roraima","population":18913,"lat":4.4799,"lon":-61.1477},"1400472":{"id":1400472,"name":"Rorainópolis","region":"Roraima","population":30782,"lat":0.939956,"lon":-60.4389},"1400506":{"id":1400506,"name":"São João da Baliza","region":"Roraima","population":8348,"lat":0.951659,"lon":-59.9133},"1400605":{"id":1400605,"name":"São Luís","region":"Roraima","population":8110,"lat":1.01019,"lon":-60.0419},"1400704":{"id":1400704,"name":"Uiramutã","region":"Roraima","population":10789,"lat":4.60314,"lon":-60.1815},"1500107":{"id":1500107,"name":"Abaetetuba","region":"Pará","population":159080,"lat":-1.72183,"lon":-48.8788},"1500131":{"id":1500131,"name":"Abel Figueiredo","region":"Pará","population":7486,"lat":-4.95333,"lon":-48.3933},"1500206":{"id":1500206,"name":"Acará","region":"Pará","population":55669,"lat":-1.95383,"lon":-48.1985},"1500305":{"id":1500305,"name":"Afuá","region":"Pará","population":39567,"lat":-0.154874,"lon":-50.3861},"1500347":{"id":1500347,"name":"Água Azul do Norte","region":"Pará","population":27615,"lat":-6.79053,"lon":-50.4791},"1500404":{"id":1500404,"name":"Alenquer","region":"Pará","population":57092,"lat":-1.94623,"lon":-54.7384},"1500503":{"id":1500503,"name":"Almeirim","region":"Pará","population":34076,"lat":-1.52904,"lon":-52.5788},"1500602":{"id":1500602,"name":"Altamira","region":"Pará","population":115969,"lat":-3.20407,"lon":-52.21},"1500701":{"id":1500701,"name":"Anajás","region":"Pará","population":29688,"lat":-0.996811,"lon":-49.9354},"1500800":{"id":1500800,"name":"Ananindeua","region":"Pará","population":535547,"lat":-1.36391,"lon":-48.3743},"1500859":{"id":1500859,"name":"Anapu","region":"Pará","population":28607,"lat":-3.46985,"lon":-51.2003},"1500909":{"id":1500909,"name":"Augusto Corrêa","region":"Pará","population":46471,"lat":-1.05109,"lon":-46.6147},"1500958":{"id":1500958,"name":"Aurora do Pará","region":"Pará","population":31773,"lat":-2.14898,"lon":-47.5677},"1501006":{"id":1501006,"name":"Aveiro","region":"Pará","population":16404,"lat":-3.60841,"lon":-55.3199},"1501105":{"id":1501105,"name":"Bagre","region":"Pará","population":31325,"lat":-1.90057,"lon":-50.1987},"1501204":{"id":1501204,"name":"Baião","region":"Pará","population":48459,"lat":-2.79021,"lon":-49.6694},"1501253":{"id":1501253,"name":"Bannach","region":"Pará","population":3262,"lat":-7.34779,"lon":-50.3959},"1501303":{"id":1501303,"name":"Barcarena","region":"Pará","population":127027,"lat":-1.51187,"lon":-48.6195},"1501402":{"id":1501402,"name":"Belém","region":"Pará","population":1499641,"lat":-1.4554,"lon":-48.4898},"1501451":{"id":1501451,"name":"Belterra","region":"Pará","population":17839,"lat":-2.63609,"lon":-54.9374},"1501501":{"id":1501501,"name":"Benevides","region":"Pará","population":63768,"lat":-1.36183,"lon":-48.2434},"1501576":{"id":1501576,"name":"Bom Jesus do Tocantins","region":"Pará","population":17118,"lat":-5.0424,"lon":-48.6047},"1501600":{"id":1501600,"name":"Bonito","region":"Pará","population":16530,"lat":-1.36745,"lon":-47.3066},"1501709":{"id":1501709,"name":"Bragança","region":"Pará","population":128914,"lat":-1.06126,"lon":-46.7826},"1501725":{"id":1501725,"name":"Brasil Novo","region":"Pará","population":14983,"lat":-3.29792,"lon":-52.534},"1501758":{"id":1501758,"name":"Brejo Grande do Araguaia","region":"Pará","population":7368,"lat":-5.69822,"lon":-48.4103},"1501782":{"id":1501782,"name":"Breu Branco","region":"Pará","population":67332,"lat":-3.77191,"lon":-49.5735},"1501808":{"id":1501808,"name":"Breves","region":"Pará","population":103497,"lat":-1.68036,"lon":-50.4791},"1501907":{"id":1501907,"name":"Bujaru","region":"Pará","population":29427,"lat":-1.51762,"lon":-48.0381},"1501956":{"id":1501956,"name":"Cachoeira do Piriá","region":"Pará","population":34609,"lat":-1.75974,"lon":-46.5459},"1502004":{"id":1502004,"name":"Cachoeira do Arari","region":"Pará","population":24064,"lat":-1.01226,"lon":-48.9503},"1502103":{"id":1502103,"name":"Cametá","region":"Pará","population":139364,"lat":-2.24295,"lon":-49.4979},"1502152":{"id":1502152,"name":"Canaã dos Carajás","region":"Pará","population":38103,"lat":-6.49659,"lon":-49.8776},"1502202":{"id":1502202,"name":"Capanema","region":"Pará","population":69431,"lat":-1.20529,"lon":-47.1778},"1502301":{"id":1502301,"name":"Capitão Poço","region":"Pará","population":54425,"lat":-1.74785,"lon":-47.0629},"1502400":{"id":1502400,"name":"Castanhal","region":"Pará","population":203251,"lat":-1.29797,"lon":-47.9167},"1502509":{"id":1502509,"name":"Chaves","region":"Pará","population":23948,"lat":-0.164154,"lon":-49.987},"1502608":{"id":1502608,"name":"Colares","region":"Pará","population":12131,"lat":-0.936423,"lon":-48.2803},"1502707":{"id":1502707,"name":"Conceição do Araguaia","region":"Pará","population":47991,"lat":-8.26136,"lon":-49.2689},"1502756":{"id":1502756,"name":"Concórdia do Pará","region":"Pará","population":33781,"lat":-1.99238,"lon":-47.9422},"1502764":{"id":1502764,"name":"Cumaru do Norte","region":"Pará","population":13761,"lat":-7.81097,"lon":-50.7698},"1502772":{"id":1502772,"name":"Curionópolis","region":"Pará","population":17846,"lat":-6.09965,"lon":-49.6068},"1502806":{"id":1502806,"name":"Curralinho","region":"Pará","population":34994,"lat":-1.81179,"lon":-49.7952},"1502855":{"id":1502855,"name":"Curuá","region":"Pará","population":14587,"lat":-1.88775,"lon":-55.1168},"1502905":{"id":1502905,"name":"Curuçá","region":"Pará","population":40584,"lat":-0.733214,"lon":-47.8515},"1502939":{"id":1502939,"name":"Dom Eliseu","region":"Pará","population":60469,"lat":-4.19944,"lon":-47.8245},"1502954":{"id":1502954,"name":"Eldorado dos Carajás","region":"Pará","population":33940,"lat":-6.10389,"lon":-49.3553},"1503002":{"id":1503002,"name":"Faro","region":"Pará","population":7070,"lat":-2.16805,"lon":-56.7405},"1503044":{"id":1503044,"name":"Floresta do Araguaia","region":"Pará","population":20525,"lat":-7.55335,"lon":-49.7125},"1503077":{"id":1503077,"name":"Garrafão do Norte","region":"Pará","population":26111,"lat":-1.92986,"lon":-47.0505},"1503093":{"id":1503093,"name":"Goianésia do Pará","region":"Pará","population":41081,"lat":-3.84338,"lon":-49.0974},"1503101":{"id":1503101,"name":"Gurupá","region":"Pará","population":33755,"lat":-1.41412,"lon":-51.6338},"1503200":{"id":1503200,"name":"Igarapé-Açu","region":"Pará","population":39023,"lat":-1.12539,"lon":-47.626},"1503309":{"id":1503309,"name":"Igarapé-Miri","region":"Pará","population":63036,"lat":-1.97533,"lon":-48.9575},"1503408":{"id":1503408,"name":"Inhangapi","region":"Pará","population":11861,"lat":-1.4349,"lon":-47.9114},"1503457":{"id":1503457,"name":"Ipixuna do Pará","region":"Pará","population":65625,"lat":-2.55992,"lon":-47.5059},"1503507":{"id":1503507,"name":"Irituia","region":"Pará","population":32595,"lat":-1.76984,"lon":-47.446},"1503606":{"id":1503606,"name":"Itaituba","region":"Pará","population":101395,"lat":-4.2667,"lon":-55.9926},"1503705":{"id":1503705,"name":"Itupiranga","region":"Pará","population":53355,"lat":-5.13272,"lon":-49.3358},"1503754":{"id":1503754,"name":"Jacareacanga","region":"Pará","population":7590,"lat":-6.21469,"lon":-57.7544},"1503804":{"id":1503804,"name":"Jacundá","region":"Pará","population":59842,"lat":-4.44617,"lon":-49.1153},"1503903":{"id":1503903,"name":"Juruti","region":"Pará","population":58960,"lat":-2.16347,"lon":-56.0889},"1504000":{"id":1504000,"name":"Limoeiro do Ajuru","region":"Pará","population":29282,"lat":-1.8985,"lon":-49.3903},"1504059":{"id":1504059,"name":"Mãe do Rio","region":"Pará","population":30235,"lat":-2.05683,"lon":-47.5601},"1504109":{"id":1504109,"name":"Magalhães Barata","region":"Pará","population":8573,"lat":-0.803391,"lon":-47.6014},"1504208":{"id":1504208,"name":"Marabá","region":"Pará","population":283542,"lat":-5.38075,"lon":-49.1327},"1504307":{"id":1504307,"name":"Maracanã","region":"Pará","population":29516,"lat":-0.778899,"lon":-47.452},"1504406":{"id":1504406,"name":"Marapanim","region":"Pará","population":28450,"lat":-0.714702,"lon":-47.7034},"1504422":{"id":1504422,"name":"Marituba","region":"Pará","population":133685,"lat":-1.36002,"lon":-48.3421},"1504455":{"id":1504455,"name":"Medicilândia","region":"Pará","population":31975,"lat":-3.44637,"lon":-52.8875},"1504505":{"id":1504505,"name":"Melgaço","region":"Pará","population":27890,"lat":-1.8032,"lon":-50.7149},"1504604":{"id":1504604,"name":"Mocajuba","region":"Pará","population":31530,"lat":-2.5831,"lon":-49.5042},"1504703":{"id":1504703,"name":"Moju","region":"Pará","population":83182,"lat":-1.88993,"lon":-48.7668},"1504752":{"id":1504752,"name":"Mojuí dos Campos","region":"Pará","population":16184,"lat":-2.6822,"lon":-54.6425},"1504802":{"id":1504802,"name":"Monte Alegre","region":"Pará","population":58162,"lat":-1.99768,"lon":-54.0724},"1504901":{"id":1504901,"name":"Muaná","region":"Pará","population":40906,"lat":-1.53936,"lon":-49.2224},"1504950":{"id":1504950,"name":"Nova Esperança do Piriá","region":"Pará","population":21444,"lat":-2.26693,"lon":-46.9731},"1504976":{"id":1504976,"name":"Nova Ipixuna","region":"Pará","population":16854,"lat":-4.91622,"lon":-49.0822},"1505007":{"id":1505007,"name":"Nova Timboteua","region":"Pará","population":15506,"lat":-1.20874,"lon":-47.3921},"1505031":{"id":1505031,"name":"Novo Progresso","region":"Pará","population":25766,"lat":-7.14347,"lon":-55.3786},"1505064":{"id":1505064,"name":"Novo Repartimento","region":"Pará","population":77214,"lat":-4.24749,"lon":-49.9499},"1505106":{"id":1505106,"name":"Óbidos","region":"Pará","population":52306,"lat":-1.90107,"lon":-55.5208},"1505205":{"id":1505205,"name":"Oeiras do Pará","region":"Pará","population":32850,"lat":-2.00358,"lon":-49.8628},"1505304":{"id":1505304,"name":"Oriximiná","region":"Pará","population":74016,"lat":-1.75989,"lon":-55.8579},"1505403":{"id":1505403,"name":"Ourém","region":"Pará","population":17961,"lat":-1.54168,"lon":-47.1126},"1505437":{"id":1505437,"name":"Ourilândia do Norte","region":"Pará","population":33335,"lat":-6.7529,"lon":-51.0858},"1505486":{"id":1505486,"name":"Pacajá","region":"Pará","population":48414,"lat":-3.83542,"lon":-50.6399},"1505494":{"id":1505494,"name":"Palestina do Pará","region":"Pará","population":7582,"lat":-5.74027,"lon":-48.3181},"1505502":{"id":1505502,"name":"Paragominas","region":"Pará","population":114503,"lat":-3.00212,"lon":-47.3527},"1505536":{"id":1505536,"name":"Parauapebas","region":"Pará","population":213576,"lat":-6.06781,"lon":-49.9037},"1505551":{"id":1505551,"name":"Pau-d'Arco","region":"Pará","population":5410,"lat":-1.59772,"lon":-46.9268},"1505601":{"id":1505601,"name":"Peixe-Boi","region":"Pará","population":8081,"lat":-1.19382,"lon":-47.324},"1505635":{"id":1505635,"name":"Piçarra","region":"Pará","population":12979,"lat":-6.43778,"lon":-48.8716},"1505650":{"id":1505650,"name":"Placas","region":"Pará","population":31659,"lat":-3.86813,"lon":-54.2124},"1505700":{"id":1505700,"name":"Ponta de Pedras","region":"Pará","population":31549,"lat":-1.39587,"lon":-48.8661},"1505809":{"id":1505809,"name":"Portel","region":"Pará","population":62945,"lat":-1.93639,"lon":-50.8194},"1505908":{"id":1505908,"name":"Porto de Moz","region":"Pará","population":41801,"lat":-1.74691,"lon":-52.2361},"1506005":{"id":1506005,"name":"Prainha","region":"Pará","population":29846,"lat":-1.798,"lon":-53.4779},"1506104":{"id":1506104,"name":"Primavera","region":"Pará","population":10857,"lat":-0.945439,"lon":-47.1253},"1506112":{"id":1506112,"name":"Quatipuru","region":"Pará","population":13702,"lat":-0.899604,"lon":-47.0134},"1506138":{"id":1506138,"name":"Redenção","region":"Pará","population":85563,"lat":-8.02529,"lon":-50.0317},"1506161":{"id":1506161,"name":"Rio Maria","region":"Pará","population":18201,"lat":-7.31236,"lon":-50.0379},"1506187":{"id":1506187,"name":"Rondon do Pará","region":"Pará","population":52803,"lat":-4.77793,"lon":-48.067},"1506195":{"id":1506195,"name":"Rurópolis","region":"Pará","population":51500,"lat":-4.10028,"lon":-54.9092},"1506203":{"id":1506203,"name":"Salinópolis","region":"Pará","population":40922,"lat":-0.630815,"lon":-47.3465},"1506302":{"id":1506302,"name":"Salvaterra","region":"Pará","population":24075,"lat":-0.758444,"lon":-48.5139},"1506351":{"id":1506351,"name":"Santa Bárbara do Pará","region":"Pará","population":21449,"lat":-1.19219,"lon":-48.238},"1506401":{"id":1506401,"name":"Santa Cruz do Arari","region":"Pará","population":10314,"lat":-0.661019,"lon":-49.1771},"1506500":{"id":1506500,"name":"Santa Izabel do Pará","region":"Pará","population":71837,"lat":-1.29686,"lon":-48.1606},"1506559":{"id":1506559,"name":"Santa Luzia do Pará","region":"Pará","population":19843,"lat":-1.52147,"lon":-46.9008},"1506583":{"id":1506583,"name":"Santa Maria das Barreiras","region":"Pará","population":21850,"lat":-8.85784,"lon":-49.7215},"1506609":{"id":1506609,"name":"Santa Maria do Pará","region":"Pará","population":24995,"lat":-1.35392,"lon":-47.5712},"1506708":{"id":1506708,"name":"Santana do Araguaia","region":"Pará","population":74419,"lat":-9.3281,"lon":-50.35},"1506807":{"id":1506807,"name":"Santarém","region":"Pará","population":306480,"lat":-2.43849,"lon":-54.6996},"1506906":{"id":1506906,"name":"Santarém Novo","region":"Pará","population":6753,"lat":-0.93097,"lon":-47.3855},"1507003":{"id":1507003,"name":"Santo Antônio do Tauá","region":"Pará","population":31918,"lat":-1.1522,"lon":-48.1314},"1507102":{"id":1507102,"name":"São Caetano de Odivelas","region":"Pará","population":18129,"lat":-0.747293,"lon":-48.0246},"1507151":{"id":1507151,"name":"São Domingos do Araguaia","region":"Pará","population":25753,"lat":-5.53732,"lon":-48.7366},"1507201":{"id":1507201,"name":"São Domingos do Capim","region":"Pará","population":32139,"lat":-1.68768,"lon":-47.7665},"1507300":{"id":1507300,"name":"São Félix do Xingu","region":"Pará","population":132138,"lat":-6.64254,"lon":-51.9904},"1507409":{"id":1507409,"name":"São Francisco do Pará","region":"Pará","population":15930,"lat":-1.16963,"lon":-47.7917},"1507458":{"id":1507458,"name":"São Geraldo do Araguaia","region":"Pará","population":24705,"lat":-6.39471,"lon":-48.5592},"1507466":{"id":1507466,"name":"São João da Ponta","region":"Pará","population":6217,"lat":-0.857885,"lon":-47.918},"1507474":{"id":1507474,"name":"São João de Pirabas","region":"Pará","population":23244,"lat":-0.780222,"lon":-47.181},"1507508":{"id":1507508,"name":"São João do Araguaia","region":"Pará","population":14051,"lat":-5.36334,"lon":-48.7926},"1507607":{"id":1507607,"name":"São Miguel do Guamá","region":"Pará","population":59632,"lat":-1.61307,"lon":-47.4784},"1507706":{"id":1507706,"name":"São Sebastião da Boa Vista","region":"Pará","population":26974,"lat":-1.71597,"lon":-49.5249},"1507755":{"id":1507755,"name":"Sapucaia","region":"Pará","population":6009,"lat":-6.94018,"lon":-49.6834},"1507805":{"id":1507805,"name":"Senador José Porfírio","region":"Pará","population":11480,"lat":-4.31242,"lon":-51.5764},"1507904":{"id":1507904,"name":"Soure","region":"Pará","population":25565,"lat":-0.73032,"lon":-48.5015},"1507953":{"id":1507953,"name":"Tailândia","region":"Pará","population":108969,"lat":-2.94584,"lon":-48.9489},"1507961":{"id":1507961,"name":"Terra Alta","region":"Pará","population":11847,"lat":-1.02963,"lon":-47.9004},"1507979":{"id":1507979,"name":"Terra Santa","region":"Pará","population":18917,"lat":-2.10443,"lon":-56.4877},"1508001":{"id":1508001,"name":"Tomé-Açu","region":"Pará","population":64030,"lat":-2.41302,"lon":-48.1415},"1508035":{"id":1508035,"name":"Tracuateua","region":"Pará","population":31257,"lat":-1.07653,"lon":-46.9031},"1508050":{"id":1508050,"name":"Trairão","region":"Pará","population":19168,"lat":-4.57347,"lon":-55.9429},"1508084":{"id":1508084,"name":"Tucumã","region":"Pará","population":40136,"lat":-6.74687,"lon":-51.1626},"1508100":{"id":1508100,"name":"Tucuruí","region":"Pará","population":115144,"lat":-3.7657,"lon":-49.6773},"1508126":{"id":1508126,"name":"Ulianópolis","region":"Pará","population":60761,"lat":-3.75007,"lon":-47.4892},"1508159":{"id":1508159,"name":"Uruará","region":"Pará","population":45435,"lat":-3.71519,"lon":-53.7396},"1508209":{"id":1508209,"name":"Vigia","region":"Pará","population":54172,"lat":-0.861194,"lon":-48.1386},"1508308":{"id":1508308,"name":"Viseu","region":"Pará","population":61751,"lat":-1.19124,"lon":-46.1399},"1508357":{"id":1508357,"name":"Vitória do Xingu","region":"Pará","population":15279,"lat":-2.87922,"lon":-52.0088},"1508407":{"id":1508407,"name":"Xinguara","region":"Pará","population":45086,"lat":-7.0983,"lon":-49.9437},"1600055":{"id":1600055,"name":"Serra do Navio","region":"Amapá","population":5488,"lat":0.901357,"lon":-52.0036},"1600105":{"id":1600105,"name":"Amapá","region":"Amapá","population":9187,"lat":2.05267,"lon":-50.7957},"1600154":{"id":1600154,"name":"Pedra Branca do Amapari","region":"Amapá","population":17067,"lat":0.777424,"lon":-51.9503},"1600204":{"id":1600204,"name":"Calçoene","region":"Amapá","population":11306,"lat":2.50475,"lon":-50.9512},"1600212":{"id":1600212,"name":"Cutias","region":"Amapá","population":6101,"lat":0.970761,"lon":-50.8005},"1600238":{"id":1600238,"name":"Ferreira Gomes","region":"Amapá","population":7967,"lat":0.857256,"lon":-51.1795},"1600253":{"id":1600253,"name":"Itaubal","region":"Amapá","population":5617,"lat":0.602185,"lon":-50.6996},"1600279":{"id":1600279,"name":"Laranjal do Jari","region":"Amapá","population":51362,"lat":-0.804911,"lon":-52.453},"1600303":{"id":1600303,"name":"Macapá","region":"Amapá","population":512902,"lat":0.034934,"lon":-51.0694},"1600402":{"id":1600402,"name":"Mazagão","region":"Amapá","population":22053,"lat":-0.11336,"lon":-51.2891},"1600501":{"id":1600501,"name":"Oiapoque","region":"Amapá","population":27906,"lat":3.84074,"lon":-51.8331},"1600535":{"id":1600535,"name":"Porto Grande","region":"Amapá","population":22452,"lat":0.71243,"lon":-51.4155},"1600550":{"id":1600550,"name":"Pracuúba","region":"Amapá","population":5246,"lat":1.74543,"lon":-50.7892},"1600600":{"id":1600600,"name":"Santana","region":"Amapá","population":123096,"lat":-0.045434,"lon":-51.1729},"1600709":{"id":1600709,"name":"Tartarugalzinho","region":"Amapá","population":17769,"lat":1.50652,"lon":-50.9087},"1600808":{"id":1600808,"name":"Vitória do Jari","region":"Amapá","population":16254,"lat":-0.938,"lon":-52.424},"1700251":{"id":1700251,"name":"Abreulândia","region":"Tocantins","population":2594,"lat":-9.62101,"lon":-49.1518},"1700301":{"id":1700301,"name":"Aguiarnópolis","region":"Tocantins","population":6892,"lat":-6.55409,"lon":-47.4702},"1700350":{"id":1700350,"name":"Aliança do Tocantins","region":"Tocantins","population":5346,"lat":-11.3056,"lon":-48.9361},"1700400":{"id":1700400,"name":"Almas","region":"Tocantins","population":6979,"lat":-11.5706,"lon":-47.1792},"1700707":{"id":1700707,"name":"Alvorada","region":"Tocantins","population":8396,"lat":-12.4785,"lon":-49.1249},"1701002":{"id":1701002,"name":"Ananás","region":"Tocantins","population":9492,"lat":-6.36437,"lon":-48.0735},"1701051":{"id":1701051,"name":"Angico","region":"Tocantins","population":3454,"lat":-6.39179,"lon":-47.8611},"1701101":{"id":1701101,"name":"Aparecida do Rio Negro","region":"Tocantins","population":4848,"lat":-9.94139,"lon":-47.9638},"1701309":{"id":1701309,"name":"Aragominas","region":"Tocantins","population":5731,"lat":-7.16005,"lon":-48.5291},"1701903":{"id":1701903,"name":"Araguacema","region":"Tocantins","population":7155,"lat":-8.80755,"lon":-49.5569},"1702000":{"id":1702000,"name":"Araguaçu","region":"Tocantins","population":8467,"lat":-12.9289,"lon":-49.8231},"1702109":{"id":1702109,"name":"Araguaína","region":"Tocantins","population":183381,"lat":-7.19238,"lon":-48.2044},"1702158":{"id":1702158,"name":"Araguanã","region":"Tocantins","population":5793,"lat":-6.58225,"lon":-48.6395},"1702208":{"id":1702208,"name":"Araguatins","region":"Tocantins","population":36170,"lat":-5.64659,"lon":-48.1232},"1702307":{"id":1702307,"name":"Arapoema","region":"Tocantins","population":6616,"lat":-7.65463,"lon":-49.0637},"1702406":{"id":1702406,"name":"Arraias","region":"Tocantins","population":10534,"lat":-12.9287,"lon":-46.9359},"1702554":{"id":1702554,"name":"Augustinópolis","region":"Tocantins","population":18643,"lat":-5.46863,"lon":-47.8863},"1702703":{"id":1702703,"name":"Aurora do Tocantins","region":"Tocantins","population":3783,"lat":-12.7105,"lon":-46.4076},"1702901":{"id":1702901,"name":"Axixá do Tocantins","region":"Tocantins","population":9787,"lat":-5.61275,"lon":-47.7701},"1703008":{"id":1703008,"name":"Babaçulândia","region":"Tocantins","population":10666,"lat":-7.20923,"lon":-47.7613},"1703057":{"id":1703057,"name":"Bandeirantes do Tocantins","region":"Tocantins","population":3592,"lat":-7.75612,"lon":-48.5836},"1703073":{"id":1703073,"name":"Barra do Ouro","region":"Tocantins","population":4632,"lat":-7.69593,"lon":-47.6776},"1703107":{"id":1703107,"name":"Barrolândia","region":"Tocantins","population":5651,"lat":-9.83404,"lon":-48.7252},"1703206":{"id":1703206,"name":"Bernardo Sayão","region":"Tocantins","population":4448,"lat":-7.87481,"lon":-48.8893},"1703305":{"id":1703305,"name":"Bom Jesus do Tocantins","region":"Tocantins","population":5008,"lat":-8.96306,"lon":-48.165},"1703602":{"id":1703602,"name":"Brasilândia do Tocantins","region":"Tocantins","population":2211,"lat":-8.38918,"lon":-48.4822},"1703701":{"id":1703701,"name":"Brejinho de Nazaré","region":"Tocantins","population":5519,"lat":-11.0058,"lon":-48.5683},"1703800":{"id":1703800,"name":"Buriti do Tocantins","region":"Tocantins","population":11497,"lat":-5.31448,"lon":-48.2271},"1703826":{"id":1703826,"name":"Cachoeirinha","region":"Tocantins","population":2284,"lat":-6.1156,"lon":-47.9234},"1703842":{"id":1703842,"name":"Campos Lindos","region":"Tocantins","population":10312,"lat":-7.98956,"lon":-46.8645},"1703867":{"id":1703867,"name":"Cariri do Tocantins","region":"Tocantins","population":4441,"lat":-11.8881,"lon":-49.1609},"1703883":{"id":1703883,"name":"Carmolândia","region":"Tocantins","population":2603,"lat":-7.03262,"lon":-48.3978},"1703891":{"id":1703891,"name":"Carrasco Bonito","region":"Tocantins","population":4130,"lat":-5.31415,"lon":-48.0314},"1703909":{"id":1703909,"name":"Caseara","region":"Tocantins","population":5442,"lat":-9.27612,"lon":-49.9521},"1704105":{"id":1704105,"name":"Centenário","region":"Tocantins","population":2936,"lat":-8.96103,"lon":-47.3304},"1704600":{"id":1704600,"name":"Chapada de Areia","region":"Tocantins","population":1410,"lat":-10.1419,"lon":-49.1403},"1705102":{"id":1705102,"name":"Chapada da Natividade","region":"Tocantins","population":3331,"lat":-11.6175,"lon":-47.7486},"1705508":{"id":1705508,"name":"Colinas do Tocantins","region":"Tocantins","population":35851,"lat":-8.05764,"lon":-48.4757},"1705557":{"id":1705557,"name":"Combinado","region":"Tocantins","population":4861,"lat":-12.7917,"lon":-46.5388},"1705607":{"id":1705607,"name":"Conceição do Tocantins","region":"Tocantins","population":4087,"lat":-12.2209,"lon":-47.2951},"1706001":{"id":1706001,"name":"Couto de Magalhães","region":"Tocantins","population":5639,"lat":-8.28411,"lon":-49.2473},"1706100":{"id":1706100,"name":"Cristalândia","region":"Tocantins","population":7278,"lat":-10.5985,"lon":-49.1942},"1706258":{"id":1706258,"name":"Crixás do Tocantins","region":"Tocantins","population":1735,"lat":-11.0994,"lon":-48.9152},"1706506":{"id":1706506,"name":"Darcinópolis","region":"Tocantins","population":6174,"lat":-6.71591,"lon":-47.7597},"1707009":{"id":1707009,"name":"Dianópolis","region":"Tocantins","population":22424,"lat":-11.624,"lon":-46.8198},"1707108":{"id":1707108,"name":"Divinópolis do Tocantins","region":"Tocantins","population":6943,"lat":-9.80018,"lon":-49.2169},"1707207":{"id":1707207,"name":"Dois Irmãos do Tocantins","region":"Tocantins","population":7185,"lat":-9.25534,"lon":-49.0638},"1707306":{"id":1707306,"name":"Dueré","region":"Tocantins","population":4686,"lat":-11.3416,"lon":-49.2716},"1707405":{"id":1707405,"name":"Esperantina","region":"Tocantins","population":11139,"lat":-5.36593,"lon":-48.5378},"1707553":{"id":1707553,"name":"Fátima","region":"Tocantins","population":3830,"lat":-10.7603,"lon":-48.9076},"1707652":{"id":1707652,"name":"Figueirópolis","region":"Tocantins","population":5243,"lat":-12.1312,"lon":-49.1748},"1707702":{"id":1707702,"name":"Filadélfia","region":"Tocantins","population":8874,"lat":-7.33501,"lon":-47.4954},"1708205":{"id":1708205,"name":"Formoso do Araguaia","region":"Tocantins","population":18399,"lat":-11.7976,"lon":-49.5316},"1708254":{"id":1708254,"name":"Tabocão","region":"Tocantins","population":2602,"lat":-9.05611,"lon":-48.5206},"1708304":{"id":1708304,"name":"Goianorte","region":"Tocantins","population":5130,"lat":-8.77413,"lon":-48.9313},"1709005":{"id":1709005,"name":"Goiatins","region":"Tocantins","population":13095,"lat":-7.71478,"lon":-47.3252},"1709302":{"id":1709302,"name":"Guaraí","region":"Tocantins","population":26165,"lat":-8.83543,"lon":-48.5114},"1709500":{"id":1709500,"name":"Gurupi","region":"Tocantins","population":87545,"lat":-11.7279,"lon":-49.068},"1709807":{"id":1709807,"name":"Ipueiras","region":"Tocantins","population":2052,"lat":-11.2329,"lon":-48.46},"1710508":{"id":1710508,"name":"Itacajá","region":"Tocantins","population":7452,"lat":-8.39293,"lon":-47.7726},"1710706":{"id":1710706,"name":"Itaguatins","region":"Tocantins","population":5832,"lat":-5.77267,"lon":-47.4864},"1710904":{"id":1710904,"name":"Itapiratins","region":"Tocantins","population":3795,"lat":-8.37982,"lon":-48.1072},"1711100":{"id":1711100,"name":"Itaporã do Tocantins","region":"Tocantins","population":2420,"lat":-8.57172,"lon":-48.6895},"1711506":{"id":1711506,"name":"Jaú do Tocantins","region":"Tocantins","population":3878,"lat":-12.6509,"lon":-48.589},"1711803":{"id":1711803,"name":"Juarina","region":"Tocantins","population":2184,"lat":-8.11951,"lon":-49.0643},"1711902":{"id":1711902,"name":"Lagoa da Confusão","region":"Tocantins","population":13676,"lat":-10.7906,"lon":-49.6199},"1711951":{"id":1711951,"name":"Lagoa do Tocantins","region":"Tocantins","population":4393,"lat":-10.368,"lon":-47.538},"1712009":{"id":1712009,"name":"Lajeado","region":"Tocantins","population":3167,"lat":-9.74996,"lon":-48.3565},"1712157":{"id":1712157,"name":"Lavandeira","region":"Tocantins","population":1954,"lat":-12.7847,"lon":-46.5099},"1712405":{"id":1712405,"name":"Lizarda","region":"Tocantins","population":3733,"lat":-9.59002,"lon":-46.6738},"1712454":{"id":1712454,"name":"Luzinópolis","region":"Tocantins","population":3154,"lat":-6.17794,"lon":-47.8582},"1712504":{"id":1712504,"name":"Marianópolis do Tocantins","region":"Tocantins","population":5254,"lat":-9.79377,"lon":-49.6553},"1712702":{"id":1712702,"name":"Mateiros","region":"Tocantins","population":2729,"lat":-10.5464,"lon":-46.4168},"1712801":{"id":1712801,"name":"Maurilândia do Tocantins","region":"Tocantins","population":3448,"lat":-5.95169,"lon":-47.5125},"1713205":{"id":1713205,"name":"Miracema do Tocantins","region":"Tocantins","population":17936,"lat":-9.56556,"lon":-48.393},"1713304":{"id":1713304,"name":"Miranorte","region":"Tocantins","population":13493,"lat":-9.52907,"lon":-48.5922},"1713601":{"id":1713601,"name":"Monte do Carmo","region":"Tocantins","population":8066,"lat":-10.7611,"lon":-48.1114},"1713700":{"id":1713700,"name":"Monte Santo do Tocantins","region":"Tocantins","population":2295,"lat":-10.0075,"lon":-48.9941},"1713809":{"id":1713809,"name":"Palmeiras do Tocantins","region":"Tocantins","population":6745,"lat":-6.61658,"lon":-47.5464},"1713957":{"id":1713957,"name":"Muricilândia","region":"Tocantins","population":3587,"lat":-7.14669,"lon":-48.6091},"1714203":{"id":1714203,"name":"Natividade","region":"Tocantins","population":9250,"lat":-11.7034,"lon":-47.7223},"1714302":{"id":1714302,"name":"Nazaré","region":"Tocantins","population":3834,"lat":-6.37496,"lon":-47.6643},"1714880":{"id":1714880,"name":"Nova Olinda","region":"Tocantins","population":11917,"lat":-7.63171,"lon":-48.4252},"1715002":{"id":1715002,"name":"Nova Rosalândia","region":"Tocantins","population":4304,"lat":-10.5651,"lon":-48.9125},"1715101":{"id":1715101,"name":"Novo Acordo","region":"Tocantins","population":4397,"lat":-9.97063,"lon":-47.6785},"1715150":{"id":1715150,"name":"Novo Alegre","region":"Tocantins","population":2332,"lat":-12.9217,"lon":-46.5713},"1715259":{"id":1715259,"name":"Novo Jardim","region":"Tocantins","population":2745,"lat":-11.826,"lon":-46.6325},"1715507":{"id":1715507,"name":"Oliveira de Fátima","region":"Tocantins","population":1118,"lat":-10.707,"lon":-48.9086},"1715705":{"id":1715705,"name":"Palmeirante","region":"Tocantins","population":6131,"lat":-7.84786,"lon":-47.9242},"1715754":{"id":1715754,"name":"Palmeirópolis","region":"Tocantins","population":7676,"lat":-13.0447,"lon":-48.4026},"1716109":{"id":1716109,"name":"Paraíso do Tocantins","region":"Tocantins","population":51891,"lat":-10.175,"lon":-48.8823},"1716208":{"id":1716208,"name":"Paranã","region":"Tocantins","population":10437,"lat":-12.6167,"lon":-47.8734},"1716307":{"id":1716307,"name":"Pau-d'Arco","region":"Tocantins","population":4867,"lat":-7.53919,"lon":-49.367},"1716505":{"id":1716505,"name":"Pedro Afonso","region":"Tocantins","population":13773,"lat":-8.97034,"lon":-48.1729},"1716604":{"id":1716604,"name":"Peixe","region":"Tocantins","population":11873,"lat":-12.0254,"lon":-48.5395},"1716653":{"id":1716653,"name":"Pequizeiro","region":"Tocantins","population":5512,"lat":-8.5932,"lon":-48.9327},"1716703":{"id":1716703,"name":"Colméia","region":"Tocantins","population":8141,"lat":-8.72463,"lon":-48.7638},"1717008":{"id":1717008,"name":"Pindorama do Tocantins","region":"Tocantins","population":4430,"lat":-11.1311,"lon":-47.5726},"1717206":{"id":1717206,"name":"Piraquê","region":"Tocantins","population":3033,"lat":-6.77302,"lon":-48.2958},"1717503":{"id":1717503,"name":"Pium","region":"Tocantins","population":7743,"lat":-10.442,"lon":-49.1876},"1717800":{"id":1717800,"name":"Ponte Alta do Bom Jesus","region":"Tocantins","population":4591,"lat":-12.0853,"lon":-46.4825},"1717909":{"id":1717909,"name":"Ponte Alta do Tocantins","region":"Tocantins","population":8116,"lat":-10.7481,"lon":-47.5276},"1718006":{"id":1718006,"name":"Porto Alegre do Tocantins","region":"Tocantins","population":3170,"lat":-11.618,"lon":-47.0621},"1718204":{"id":1718204,"name":"Porto Nacional","region":"Tocantins","population":53316,"lat":-10.7027,"lon":-48.408},"1718303":{"id":1718303,"name":"Praia Norte","region":"Tocantins","population":8498,"lat":-5.39281,"lon":-47.8111},"1718402":{"id":1718402,"name":"Presidente Kennedy","region":"Tocantins","population":3676,"lat":-8.5406,"lon":-48.5062},"1718451":{"id":1718451,"name":"Pugmil","region":"Tocantins","population":2717,"lat":-10.424,"lon":-48.8957},"1718501":{"id":1718501,"name":"Recursolândia","region":"Tocantins","population":4342,"lat":-8.7227,"lon":-47.2421},"1718550":{"id":1718550,"name":"Riachinho","region":"Tocantins","population":4684,"lat":-6.44005,"lon":-48.1371},"1718659":{"id":1718659,"name":"Rio da Conceição","region":"Tocantins","population":2171,"lat":-11.3949,"lon":-46.8847},"1718709":{"id":1718709,"name":"Rio dos Bois","region":"Tocantins","population":2856,"lat":-9.34425,"lon":-48.5245},"1718758":{"id":1718758,"name":"Rio Sono","region":"Tocantins","population":6488,"lat":-9.35002,"lon":-47.888},"1718808":{"id":1718808,"name":"Sampaio","region":"Tocantins","population":4794,"lat":-5.35423,"lon":-47.8782},"1718840":{"id":1718840,"name":"Sandolândia","region":"Tocantins","population":3373,"lat":-12.538,"lon":-49.9242},"1718865":{"id":1718865,"name":"Santa Fé do Araguaia","region":"Tocantins","population":7595,"lat":-7.15803,"lon":-48.7165},"1718881":{"id":1718881,"name":"Santa Maria do Tocantins","region":"Tocantins","population":3486,"lat":-8.8046,"lon":-47.7887},"1718899":{"id":1718899,"name":"Santa Rita do Tocantins","region":"Tocantins","population":2386,"lat":-10.8617,"lon":-48.9161},"1718907":{"id":1718907,"name":"Santa Rosa do Tocantins","region":"Tocantins","population":4846,"lat":-11.4474,"lon":-48.1216},"1719004":{"id":1719004,"name":"Santa Tereza do Tocantins","region":"Tocantins","population":2897,"lat":-10.2746,"lon":-47.8033},"1720002":{"id":1720002,"name":"Santa Terezinha do Tocantins","region":"Tocantins","population":2530,"lat":-6.44438,"lon":-47.6684},"1720101":{"id":1720101,"name":"São Bento do Tocantins","region":"Tocantins","population":5391,"lat":-6.0258,"lon":-47.9012},"1720150":{"id":1720150,"name":"São Félix do Tocantins","region":"Tocantins","population":1598,"lat":-10.1615,"lon":-46.6618},"1720200":{"id":1720200,"name":"São Miguel do Tocantins","region":"Tocantins","population":12294,"lat":-5.56305,"lon":-47.5743},"1720259":{"id":1720259,"name":"São Salvador do Tocantins","region":"Tocantins","population":3094,"lat":-12.7458,"lon":-48.2352},"1720309":{"id":1720309,"name":"São Sebastião do Tocantins","region":"Tocantins","population":4852,"lat":-5.26131,"lon":-48.2021},"1720499":{"id":1720499,"name":"São Valério da Natividade","region":"Tocantins","population":3904,"lat":-11.9743,"lon":-48.2353},"1720655":{"id":1720655,"name":"Silvanópolis","region":"Tocantins","population":5428,"lat":-11.1471,"lon":-48.1694},"1720804":{"id":1720804,"name":"Sítio Novo do Tocantins","region":"Tocantins","population":8997,"lat":-5.6012,"lon":-47.6381},"1720853":{"id":1720853,"name":"Sucupira","region":"Tocantins","population":1986,"lat":-11.993,"lon":-48.9685},"1720903":{"id":1720903,"name":"Taguatinga","region":"Tocantins","population":16825,"lat":-12.4026,"lon":-46.437},"1720937":{"id":1720937,"name":"Taipas do Tocantins","region":"Tocantins","population":2166,"lat":-12.1873,"lon":-46.9797},"1720978":{"id":1720978,"name":"Talismã","region":"Tocantins","population":2812,"lat":-12.7949,"lon":-49.0896},"1721000":{"id":1721000,"name":"Palmas","region":"Tocantins","population":306296,"lat":-10.24,"lon":-48.3558},"1721109":{"id":1721109,"name":"Tocantínia","region":"Tocantins","population":7617,"lat":-9.5632,"lon":-48.3741},"1721208":{"id":1721208,"name":"Tocantinópolis","region":"Tocantins","population":22845,"lat":-6.32447,"lon":-47.4224},"1721257":{"id":1721257,"name":"Tupirama","region":"Tocantins","population":1922,"lat":-8.97168,"lon":-48.1883},"1721307":{"id":1721307,"name":"Tupiratins","region":"Tocantins","population":2729,"lat":-8.39388,"lon":-48.1277},"1722081":{"id":1722081,"name":"Wanderlândia","region":"Tocantins","population":11734,"lat":-6.85274,"lon":-47.9601},"1722107":{"id":1722107,"name":"Xambioá","region":"Tocantins","population":11520,"lat":-6.4141,"lon":-48.532},"2100055":{"id":2100055,"name":"Açailândia","region":"Maranhão","population":113121,"lat":-4.94714,"lon":-47.5004},"2100105":{"id":2100105,"name":"Afonso Cunha","region":"Maranhão","population":6578,"lat":-4.13631,"lon":-43.3275},"2100154":{"id":2100154,"name":"Água Doce do Maranhão","region":"Maranhão","population":12652,"lat":-2.84048,"lon":-42.1189},"2100204":{"id":2100204,"name":"Alcântara","region":"Maranhão","population":22112,"lat":-2.39574,"lon":-44.4062},"2100303":{"id":2100303,"name":"Aldeias Altas","region":"Maranhão","population":26757,"lat":-4.62621,"lon":-43.4689},"2100402":{"id":2100402,"name":"Altamira do Maranhão","region":"Maranhão","population":8189,"lat":-4.16598,"lon":-45.4706},"2100436":{"id":2100436,"name":"Alto Alegre do Maranhão","region":"Maranhão","population":27858,"lat":-4.213,"lon":-44.446},"2100477":{"id":2100477,"name":"Alto Alegre do Pindaré","region":"Maranhão","population":31943,"lat":-3.66689,"lon":-45.8421},"2100501":{"id":2100501,"name":"Alto Parnaíba","region":"Maranhão","population":11212,"lat":-9.10273,"lon":-45.9303},"2100550":{"id":2100550,"name":"Amapá do Maranhão","region":"Maranhão","population":7005,"lat":-1.67524,"lon":-46.0024},"2100600":{"id":2100600,"name":"Amarante do Maranhão","region":"Maranhão","population":41729,"lat":-5.56913,"lon":-46.7473},"2100709":{"id":2100709,"name":"Anajatuba","region":"Maranhão","population":26988,"lat":-3.26269,"lon":-44.6126},"2100808":{"id":2100808,"name":"Anapurus","region":"Maranhão","population":15894,"lat":-3.67577,"lon":-43.1014},"2100832":{"id":2100832,"name":"Apicum-Açu","region":"Maranhão","population":17413,"lat":-1.45862,"lon":-45.0864},"2100873":{"id":2100873,"name":"Araguanã","region":"Maranhão","population":15551,"lat":-2.94644,"lon":-45.6589},"2100907":{"id":2100907,"name":"Araioses","region":"Maranhão","population":46771,"lat":-2.89091,"lon":-41.905},"2100956":{"id":2100956,"name":"Arame","region":"Maranhão","population":32764,"lat":-4.88347,"lon":-46.0032},"2101004":{"id":2101004,"name":"Arari","region":"Maranhão","population":29932,"lat":-3.45214,"lon":-44.7665},"2101103":{"id":2101103,"name":"Axixá","region":"Maranhão","population":12183,"lat":-2.83939,"lon":-44.062},"2101202":{"id":2101202,"name":"Bacabal","region":"Maranhão","population":104790,"lat":-4.22447,"lon":-44.7832},"2101251":{"id":2101251,"name":"Bacabeira","region":"Maranhão","population":17252,"lat":-2.96452,"lon":-44.3164},"2101301":{"id":2101301,"name":"Bacuri","region":"Maranhão","population":18654,"lat":-1.6965,"lon":-45.1328},"2101350":{"id":2101350,"name":"Bacurituba","region":"Maranhão","population":5670,"lat":-2.71,"lon":-44.7329},"2101400":{"id":2101400,"name":"Balsas","region":"Maranhão","population":95929,"lat":-7.53214,"lon":-46.0372},"2101509":{"id":2101509,"name":"Barão de Grajaú","region":"Maranhão","population":18924,"lat":-6.74463,"lon":-43.0261},"2101608":{"id":2101608,"name":"Barra do Corda","region":"Maranhão","population":88492,"lat":-5.49682,"lon":-45.2485},"2101707":{"id":2101707,"name":"Barreirinhas","region":"Maranhão","population":63217,"lat":-2.75863,"lon":-42.8232},"2101731":{"id":2101731,"name":"Belágua","region":"Maranhão","population":7528,"lat":-3.15485,"lon":-43.5122},"2101772":{"id":2101772,"name":"Bela Vista do Maranhão","region":"Maranhão","population":11279,"lat":-3.72618,"lon":-45.3075},"2101806":{"id":2101806,"name":"Benedito Leite","region":"Maranhão","population":5638,"lat":-7.21037,"lon":-44.5577},"2101905":{"id":2101905,"name":"Bequimão","region":"Maranhão","population":21299,"lat":-2.44162,"lon":-44.7842},"2101939":{"id":2101939,"name":"Bernardo do Mearim","region":"Maranhão","population":6073,"lat":-4.62666,"lon":-44.7608},"2101970":{"id":2101970,"name":"Boa Vista do Gurupi","region":"Maranhão","population":8382,"lat":-1.77614,"lon":-46.3002},"2102002":{"id":2102002,"name":"Bom Jardim","region":"Maranhão","population":41822,"lat":-3.54129,"lon":-45.606},"2102036":{"id":2102036,"name":"Bom Jesus das Selvas","region":"Maranhão","population":34567,"lat":-4.47638,"lon":-46.8641},"2102077":{"id":2102077,"name":"Bom Lugar","region":"Maranhão","population":16438,"lat":-4.37311,"lon":-45.0326},"2102101":{"id":2102101,"name":"Brejo","region":"Maranhão","population":36651,"lat":-3.67796,"lon":-42.7527},"2102150":{"id":2102150,"name":"Brejo de Areia","region":"Maranhão","population":9014,"lat":-4.334,"lon":-45.581},"2102200":{"id":2102200,"name":"Buriti","region":"Maranhão","population":28798,"lat":-3.94169,"lon":-42.9179},"2102309":{"id":2102309,"name":"Buriti Bravo","region":"Maranhão","population":23939,"lat":-5.83239,"lon":-43.8353},"2102325":{"id":2102325,"name":"Buriticupu","region":"Maranhão","population":72983,"lat":-4.32375,"lon":-46.4409},"2102358":{"id":2102358,"name":"Buritirana","region":"Maranhão","population":15467,"lat":-5.59823,"lon":-47.0131},"2102374":{"id":2102374,"name":"Cachoeira Grande","region":"Maranhão","population":9478,"lat":-2.93074,"lon":-44.0528},"2102408":{"id":2102408,"name":"Cajapió","region":"Maranhão","population":11216,"lat":-2.87326,"lon":-44.6741},"2102507":{"id":2102507,"name":"Cajari","region":"Maranhão","population":19451,"lat":-3.32742,"lon":-45.0145},"2102556":{"id":2102556,"name":"Campestre do Maranhão","region":"Maranhão","population":14453,"lat":-6.17075,"lon":-47.3625},"2102606":{"id":2102606,"name":"Cândido Mendes","region":"Maranhão","population":20278,"lat":-1.43265,"lon":-45.7161},"2102705":{"id":2102705,"name":"Cantanhede","region":"Maranhão","population":22117,"lat":-3.63757,"lon":-44.383},"2102754":{"id":2102754,"name":"Capinzal do Norte","region":"Maranhão","population":10935,"lat":-4.7236,"lon":-44.328},"2102804":{"id":2102804,"name":"Carolina","region":"Maranhão","population":24165,"lat":-7.33584,"lon":-47.4634},"2102903":{"id":2102903,"name":"Carutapera","region":"Maranhão","population":23952,"lat":-1.19696,"lon":-46.0085},"2103000":{"id":2103000,"name":"Caxias","region":"Maranhão","population":165525,"lat":-4.86505,"lon":-43.3617},"2103109":{"id":2103109,"name":"Cedral","region":"Maranhão","population":10693,"lat":-2.00027,"lon":-44.5281},"2103125":{"id":2103125,"name":"Central do Maranhão","region":"Maranhão","population":8740,"lat":-2.19831,"lon":-44.8254},"2103158":{"id":2103158,"name":"Centro do Guilherme","region":"Maranhão","population":13670,"lat":-2.44891,"lon":-46.0345},"2103174":{"id":2103174,"name":"Centro Novo do Maranhão","region":"Maranhão","population":21840,"lat":-2.12696,"lon":-46.1228},"2103208":{"id":2103208,"name":"Chapadinha","region":"Maranhão","population":80195,"lat":-3.73875,"lon":-43.3538},"2103257":{"id":2103257,"name":"Cidelândia","region":"Maranhão","population":14777,"lat":-5.17465,"lon":-47.7781},"2103307":{"id":2103307,"name":"Codó","region":"Maranhão","population":123116,"lat":-4.45562,"lon":-43.8924},"2103406":{"id":2103406,"name":"Coelho Neto","region":"Maranhão","population":49621,"lat":-4.25245,"lon":-43.0108},"2103505":{"id":2103505,"name":"Colinas","region":"Maranhão","population":41312,"lat":-6.03199,"lon":-44.2543},"2103554":{"id":2103554,"name":"Conceição do Lago Açu","region":"Maranhão","population":16400,"lat":-3.85142,"lon":-44.8895},"2103604":{"id":2103604,"name":"Coroatá","region":"Maranhão","population":65544,"lat":-4.13442,"lon":-44.1244},"2103703":{"id":2103703,"name":"Cururupu","region":"Maranhão","population":32626,"lat":-1.81475,"lon":-44.8644},"2103752":{"id":2103752,"name":"Davinópolis","region":"Maranhão","population":12916,"lat":-5.54637,"lon":-47.4217},"2103802":{"id":2103802,"name":"Dom Pedro","region":"Maranhão","population":23372,"lat":-5.03518,"lon":-44.4409},"2103901":{"id":2103901,"name":"Duque Bacelar","region":"Maranhão","population":11401,"lat":-4.15002,"lon":-42.9477},"2104008":{"id":2104008,"name":"Esperantinópolis","region":"Maranhão","population":17104,"lat":-4.87938,"lon":-44.6926},"2104057":{"id":2104057,"name":"Estreito","region":"Maranhão","population":42527,"lat":-6.56077,"lon":-47.4431},"2104073":{"id":2104073,"name":"Feira Nova do Maranhão","region":"Maranhão","population":8484,"lat":-6.96508,"lon":-46.6786},"2104081":{"id":2104081,"name":"Fernando Falcão","region":"Maranhão","population":10460,"lat":-6.16207,"lon":-44.8979},"2104099":{"id":2104099,"name":"Formosa da Serra Negra","region":"Maranhão","population":19258,"lat":-6.44017,"lon":-46.1916},"2104107":{"id":2104107,"name":"Fortaleza dos Nogueiras","region":"Maranhão","population":12647,"lat":-6.95983,"lon":-46.1749},"2104206":{"id":2104206,"name":"Fortuna","region":"Maranhão","population":15567,"lat":-5.72792,"lon":-44.1565},"2104305":{"id":2104305,"name":"Godofredo Viana","region":"Maranhão","population":11963,"lat":-1.40259,"lon":-45.7795},"2104404":{"id":2104404,"name":"Gonçalves Dias","region":"Maranhão","population":17944,"lat":-5.1475,"lon":-44.3013},"2104503":{"id":2104503,"name":"Governador Archer","region":"Maranhão","population":10886,"lat":-5.02078,"lon":-44.2754},"2104552":{"id":2104552,"name":"Governador Edison Lobão","region":"Maranhão","population":18520,"lat":-5.74973,"lon":-47.3646},"2104602":{"id":2104602,"name":"Governador Eugênio Barros","region":"Maranhão","population":16882,"lat":-5.31897,"lon":-44.2469},"2104628":{"id":2104628,"name":"Governador Luiz Rocha","region":"Maranhão","population":7841,"lat":-5.47835,"lon":-44.0774},"2104651":{"id":2104651,"name":"Governador Newton Bello","region":"Maranhão","population":10151,"lat":-3.43245,"lon":-45.6619},"2104677":{"id":2104677,"name":"Governador Nunes Freire","region":"Maranhão","population":25539,"lat":-2.12899,"lon":-45.8777},"2104701":{"id":2104701,"name":"Graça Aranha","region":"Maranhão","population":6261,"lat":-5.40547,"lon":-44.3358},"2104800":{"id":2104800,"name":"Grajaú","region":"Maranhão","population":70065,"lat":-5.81367,"lon":-46.1462},"2104909":{"id":2104909,"name":"Guimarães","region":"Maranhão","population":11997,"lat":-2.12755,"lon":-44.602},"2105005":{"id":2105005,"name":"Humberto de Campos","region":"Maranhão","population":28932,"lat":-2.59828,"lon":-43.4649},"2105104":{"id":2105104,"name":"Icatu","region":"Maranhão","population":27269,"lat":-2.77206,"lon":-44.0501},"2105153":{"id":2105153,"name":"Igarapé do Meio","region":"Maranhão","population":14324,"lat":-3.65771,"lon":-45.2114},"2105203":{"id":2105203,"name":"Igarapé Grande","region":"Maranhão","population":11387,"lat":-4.6625,"lon":-44.8558},"2105302":{"id":2105302,"name":"Imperatriz","region":"Maranhão","population":259337,"lat":-5.51847,"lon":-47.4777},"2105351":{"id":2105351,"name":"Itaipava do Grajaú","region":"Maranhão","population":16005,"lat":-5.14252,"lon":-45.7877},"2105401":{"id":2105401,"name":"Itapecuru-Mirim","region":"Maranhão","population":68723,"lat":-3.40202,"lon":-44.3508},"2105427":{"id":2105427,"name":"Itinga do Maranhão","region":"Maranhão","population":26068,"lat":-4.45293,"lon":-47.5235},"2105450":{"id":2105450,"name":"Jatobá","region":"Maranhão","population":10310,"lat":-5.82282,"lon":-44.2153},"2105476":{"id":2105476,"name":"Jenipapo dos Vieiras","region":"Maranhão","population":17040,"lat":-5.36237,"lon":-45.6356},"2105500":{"id":2105500,"name":"João Lisboa","region":"Maranhão","population":23740,"lat":-5.44363,"lon":-47.4064},"2105609":{"id":2105609,"name":"Joselândia","region":"Maranhão","population":16198,"lat":-4.98611,"lon":-44.6958},"2105658":{"id":2105658,"name":"Junco do Maranhão","region":"Maranhão","population":4392,"lat":-1.83888,"lon":-46.09},"2105708":{"id":2105708,"name":"Lago da Pedra","region":"Maranhão","population":50616,"lat":-4.56974,"lon":-45.1319},"2105807":{"id":2105807,"name":"Lago do Junco","region":"Maranhão","population":10869,"lat":-4.609,"lon":-45.049},"2105906":{"id":2105906,"name":"Lago Verde","region":"Maranhão","population":16314,"lat":-3.94661,"lon":-44.826},"2105922":{"id":2105922,"name":"Lagoa do Mato","region":"Maranhão","population":11265,"lat":-6.05023,"lon":-43.5333},"2105948":{"id":2105948,"name":"Lago dos Rodrigues","region":"Maranhão","population":8857,"lat":-4.61173,"lon":-44.9798},"2105963":{"id":2105963,"name":"Lagoa Grande do Maranhão","region":"Maranhão","population":11464,"lat":-4.98893,"lon":-45.3816},"2105989":{"id":2105989,"name":"Lajeado Novo","region":"Maranhão","population":7602,"lat":-6.18539,"lon":-47.0293},"2106003":{"id":2106003,"name":"Lima Campos","region":"Maranhão","population":11918,"lat":-4.51837,"lon":-44.4646},"2106102":{"id":2106102,"name":"Loreto","region":"Maranhão","population":12214,"lat":-7.08111,"lon":-45.1451},"2106201":{"id":2106201,"name":"Luís Domingues","region":"Maranhão","population":6984,"lat":-1.27492,"lon":-45.867},"2106300":{"id":2106300,"name":"Magalhães de Almeida","region":"Maranhão","population":20029,"lat":-3.39232,"lon":-42.2117},"2106326":{"id":2106326,"name":"Maracaçumé","region":"Maranhão","population":21586,"lat":-2.04918,"lon":-45.9587},"2106359":{"id":2106359,"name":"Marajá do Sena","region":"Maranhão","population":7775,"lat":-4.62806,"lon":-45.4531},"2106375":{"id":2106375,"name":"Maranhãozinho","region":"Maranhão","population":16511,"lat":-2.24078,"lon":-45.8507},"2106409":{"id":2106409,"name":"Mata Roma","region":"Maranhão","population":16977,"lat":-3.62035,"lon":-43.1112},"2106508":{"id":2106508,"name":"Matinha","region":"Maranhão","population":23482,"lat":-3.09849,"lon":-45.035},"2106607":{"id":2106607,"name":"Matões","region":"Maranhão","population":33943,"lat":-5.51359,"lon":-43.2018},"2106631":{"id":2106631,"name":"Matões do Norte","region":"Maranhão","population":17033,"lat":-3.6244,"lon":-44.5468},"2106672":{"id":2106672,"name":"Milagres do Maranhão","region":"Maranhão","population":8483,"lat":-3.57443,"lon":-42.6131},"2106706":{"id":2106706,"name":"Mirador","region":"Maranhão","population":21031,"lat":-6.37454,"lon":-44.3683},"2106755":{"id":2106755,"name":"Miranda do Norte","region":"Maranhão","population":28754,"lat":-3.56313,"lon":-44.5814},"2106805":{"id":2106805,"name":"Mirinzal","region":"Maranhão","population":15011,"lat":-2.07094,"lon":-44.7787},"2106904":{"id":2106904,"name":"Monção","region":"Maranhão","population":33664,"lat":-3.48125,"lon":-45.2496},"2107001":{"id":2107001,"name":"Montes Altos","region":"Maranhão","population":9111,"lat":-5.83067,"lon":-47.0673},"2107100":{"id":2107100,"name":"Morros","region":"Maranhão","population":19572,"lat":-2.85379,"lon":-44.0357},"2107209":{"id":2107209,"name":"Nina Rodrigues","region":"Maranhão","population":14642,"lat":-3.46788,"lon":-43.9134},"2107258":{"id":2107258,"name":"Nova Colinas","region":"Maranhão","population":5427,"lat":-7.12263,"lon":-46.2607},"2107308":{"id":2107308,"name":"Nova Iorque","region":"Maranhão","population":4682,"lat":-6.73047,"lon":-44.0471},"2107357":{"id":2107357,"name":"Nova Olinda do Maranhão","region":"Maranhão","population":21080,"lat":-2.84227,"lon":-45.6953},"2107407":{"id":2107407,"name":"Olho d'Água das Cunhãs","region":"Maranhão","population":19561,"lat":-4.13417,"lon":-45.1163},"2107456":{"id":2107456,"name":"Olinda Nova do Maranhão","region":"Maranhão","population":14836,"lat":-2.99295,"lon":-44.9897},"2107506":{"id":2107506,"name":"Paço do Lumiar","region":"Maranhão","population":123747,"lat":-2.51657,"lon":-44.1019},"2107605":{"id":2107605,"name":"Palmeirândia","region":"Maranhão","population":19781,"lat":-2.64433,"lon":-44.8933},"2107704":{"id":2107704,"name":"Paraibano","region":"Maranhão","population":21479,"lat":-6.4264,"lon":-43.9792},"2107803":{"id":2107803,"name":"Parnarama","region":"Maranhão","population":35008,"lat":-5.67365,"lon":-43.1011},"2107902":{"id":2107902,"name":"Passagem Franca","region":"Maranhão","population":19137,"lat":-6.17745,"lon":-43.7755},"2108009":{"id":2108009,"name":"Pastos Bons","region":"Maranhão","population":19583,"lat":-6.60296,"lon":-44.0745},"2108058":{"id":2108058,"name":"Paulino Neves","region":"Maranhão","population":16166,"lat":-2.72094,"lon":-42.5258},"2108108":{"id":2108108,"name":"Paulo Ramos","region":"Maranhão","population":21066,"lat":-4.44485,"lon":-45.2398},"2108207":{"id":2108207,"name":"Pedreiras","region":"Maranhão","population":39191,"lat":-4.56482,"lon":-44.6006},"2108256":{"id":2108256,"name":"Pedro do Rosário","region":"Maranhão","population":25354,"lat":-2.97272,"lon":-45.3493},"2108306":{"id":2108306,"name":"Penalva","region":"Maranhão","population":38731,"lat":-3.27674,"lon":-45.1768},"2108405":{"id":2108405,"name":"Peri Mirim","region":"Maranhão","population":14345,"lat":-2.57676,"lon":-44.8504},"2108454":{"id":2108454,"name":"Peritoró","region":"Maranhão","population":23364,"lat":-4.37459,"lon":-44.3369},"2108504":{"id":2108504,"name":"Pindaré-Mirim","region":"Maranhão","population":33065,"lat":-3.60985,"lon":-45.342},"2108603":{"id":2108603,"name":"Pinheiro","region":"Maranhão","population":83777,"lat":-2.52224,"lon":-45.0788},"2108702":{"id":2108702,"name":"Pio XII","region":"Maranhão","population":21379,"lat":-3.89315,"lon":-45.1759},"2108801":{"id":2108801,"name":"Pirapemas","region":"Maranhão","population":18720,"lat":-3.72041,"lon":-44.2216},"2108900":{"id":2108900,"name":"Poção de Pedras","region":"Maranhão","population":17595,"lat":-4.74626,"lon":-44.9432},"2109007":{"id":2109007,"name":"Porto Franco","region":"Maranhão","population":24092,"lat":-6.34149,"lon":-47.3962},"2109056":{"id":2109056,"name":"Porto Rico do Maranhão","region":"Maranhão","population":5955,"lat":-1.85925,"lon":-44.5842},"2109106":{"id":2109106,"name":"Presidente Dutra","region":"Maranhão","population":48036,"lat":-5.2898,"lon":-44.495},"2109205":{"id":2109205,"name":"Presidente Juscelino","region":"Maranhão","population":12838,"lat":-2.91872,"lon":-44.0715},"2109239":{"id":2109239,"name":"Presidente Médici","region":"Maranhão","population":7070,"lat":-2.38991,"lon":-45.82},"2109270":{"id":2109270,"name":"Presidente Sarney","region":"Maranhão","population":19069,"lat":-2.58799,"lon":-45.3595},"2109304":{"id":2109304,"name":"Presidente Vargas","region":"Maranhão","population":11261,"lat":-3.40787,"lon":-44.0234},"2109403":{"id":2109403,"name":"Primeira Cruz","region":"Maranhão","population":15431,"lat":-2.50568,"lon":-43.4232},"2109452":{"id":2109452,"name":"Raposa","region":"Maranhão","population":31177,"lat":-2.4254,"lon":-44.0973},"2109502":{"id":2109502,"name":"Riachão","region":"Maranhão","population":20334,"lat":-7.35819,"lon":-46.6225},"2109551":{"id":2109551,"name":"Ribamar Fiquene","region":"Maranhão","population":7825,"lat":-5.93067,"lon":-47.3888},"2109601":{"id":2109601,"name":"Rosário","region":"Maranhão","population":42994,"lat":-2.93444,"lon":-44.2531},"2109700":{"id":2109700,"name":"Sambaíba","region":"Maranhão","population":5679,"lat":-7.13447,"lon":-45.3515},"2109759":{"id":2109759,"name":"Santa Filomena do Maranhão","region":"Maranhão","population":7826,"lat":-5.49671,"lon":-44.5638},"2109809":{"id":2109809,"name":"Santa Helena","region":"Maranhão","population":42483,"lat":-2.24426,"lon":-45.29},"2109908":{"id":2109908,"name":"Santa Inês","region":"Maranhão","population":89489,"lat":-3.65112,"lon":-45.3774},"2110005":{"id":2110005,"name":"Santa Luzia","region":"Maranhão","population":72887,"lat":-4.06873,"lon":-45.69},"2110039":{"id":2110039,"name":"Santa Luzia do Paruá","region":"Maranhão","population":25371,"lat":-2.51123,"lon":-45.7801},"2110104":{"id":2110104,"name":"Santa Quitéria do Maranhão","region":"Maranhão","population":25764,"lat":-3.49308,"lon":-42.5688},"2110203":{"id":2110203,"name":"Santa Rita","region":"Maranhão","population":38298,"lat":-3.14241,"lon":-44.3211},"2110237":{"id":2110237,"name":"Santana do Maranhão","region":"Maranhão","population":13547,"lat":-3.109,"lon":-42.4064},"2110278":{"id":2110278,"name":"Santo Amaro do Maranhão","region":"Maranhão","population":16034,"lat":-2.50068,"lon":-43.238},"2110302":{"id":2110302,"name":"Santo Antônio dos Lopes","region":"Maranhão","population":14522,"lat":-4.86613,"lon":-44.3653},"2110401":{"id":2110401,"name":"São Benedito do Rio Preto","region":"Maranhão","population":18717,"lat":-3.33515,"lon":-43.5287},"2110500":{"id":2110500,"name":"São Bento","region":"Maranhão","population":45604,"lat":-2.69781,"lon":-44.8289},"2110609":{"id":2110609,"name":"São Bernardo","region":"Maranhão","population":28667,"lat":-3.37223,"lon":-42.4191},"2110658":{"id":2110658,"name":"São Domingos do Azeitão","region":"Maranhão","population":7420,"lat":-6.81471,"lon":-44.6509},"2110708":{"id":2110708,"name":"São Domingos do Maranhão","region":"Maranhão","population":34384,"lat":-5.58095,"lon":-44.3822},"2110807":{"id":2110807,"name":"São Félix de Balsas","region":"Maranhão","population":4562,"lat":-7.07535,"lon":-44.8092},"2110856":{"id":2110856,"name":"São Francisco do Brejão","region":"Maranhão","population":11941,"lat":-5.12584,"lon":-47.389},"2110906":{"id":2110906,"name":"São Francisco do Maranhão","region":"Maranhão","population":12218,"lat":-6.25159,"lon":-42.8668},"2111003":{"id":2111003,"name":"São João Batista","region":"Maranhão","population":20701,"lat":-2.95398,"lon":-44.7953},"2111029":{"id":2111029,"name":"São João do Caru","region":"Maranhão","population":15787,"lat":-3.5503,"lon":-46.2507},"2111052":{"id":2111052,"name":"São João do Paraíso","region":"Maranhão","population":11193,"lat":-6.45634,"lon":-47.0594},"2111078":{"id":2111078,"name":"São João do Soter","region":"Maranhão","population":18645,"lat":-5.10821,"lon":-43.8163},"2111102":{"id":2111102,"name":"São João dos Patos","region":"Maranhão","population":25996,"lat":-6.4934,"lon":-43.7036},"2111201":{"id":2111201,"name":"São José de Ribamar","region":"Maranhão","population":179028,"lat":-2.54704,"lon":-44.0597},"2111250":{"id":2111250,"name":"São José dos Basílios","region":"Maranhão","population":7640,"lat":-5.05493,"lon":-44.5809},"2111300":{"id":2111300,"name":"São Luís","region":"Maranhão","population":1108975,"lat":-2.53874,"lon":-44.2825},"2111409":{"id":2111409,"name":"São Luís Gonzaga do Maranhão","region":"Maranhão","population":18727,"lat":-4.38541,"lon":-44.6654},"2111508":{"id":2111508,"name":"São Mateus do Maranhão","region":"Maranhão","population":41579,"lat":-4.03736,"lon":-44.4707},"2111532":{"id":2111532,"name":"São Pedro da Água Branca","region":"Maranhão","population":12735,"lat":-5.08472,"lon":-48.4291},"2111573":{"id":2111573,"name":"São Pedro dos Crentes","region":"Maranhão","population":4684,"lat":-6.82389,"lon":-46.5319},"2111607":{"id":2111607,"name":"São Raimundo das Mangabeiras","region":"Maranhão","population":18980,"lat":-7.02183,"lon":-45.4809},"2111631":{"id":2111631,"name":"São Raimundo do Doca Bezerra","region":"Maranhão","population":5131,"lat":-5.11053,"lon":-45.0696},"2111672":{"id":2111672,"name":"São Roberto","region":"Maranhão","population":6789,"lat":-5.0231,"lon":-45.001},"2111706":{"id":2111706,"name":"São Vicente Ferrer","region":"Maranhão","population":22350,"lat":-2.89487,"lon":-44.8681},"2111722":{"id":2111722,"name":"Satubinha","region":"Maranhão","population":14096,"lat":-4.04913,"lon":-45.2457},"2111748":{"id":2111748,"name":"Senador Alexandre Costa","region":"Maranhão","population":11214,"lat":-5.25096,"lon":-44.0533},"2111763":{"id":2111763,"name":"Senador La Rocque","region":"Maranhão","population":14050,"lat":-5.4461,"lon":-47.2959},"2111789":{"id":2111789,"name":"Serrano do Maranhão","region":"Maranhão","population":10299,"lat":-1.85229,"lon":-45.1207},"2111805":{"id":2111805,"name":"Sítio Novo","region":"Maranhão","population":18160,"lat":-5.87601,"lon":-46.7033},"2111904":{"id":2111904,"name":"Sucupira do Norte","region":"Maranhão","population":10634,"lat":-6.47839,"lon":-44.1919},"2111953":{"id":2111953,"name":"Sucupira do Riachão","region":"Maranhão","population":5676,"lat":-6.40858,"lon":-43.5455},"2112001":{"id":2112001,"name":"Tasso Fragoso","region":"Maranhão","population":8582,"lat":-8.4662,"lon":-45.7536},"2112100":{"id":2112100,"name":"Timbiras","region":"Maranhão","population":29183,"lat":-4.25597,"lon":-43.932},"2112209":{"id":2112209,"name":"Timon","region":"Maranhão","population":170222,"lat":-5.09769,"lon":-42.8329},"2112233":{"id":2112233,"name":"Trizidela do Vale","region":"Maranhão","population":22112,"lat":-4.538,"lon":-44.628},"2112274":{"id":2112274,"name":"Tufilândia","region":"Maranhão","population":5854,"lat":-3.67355,"lon":-45.6238},"2112308":{"id":2112308,"name":"Tuntum","region":"Maranhão","population":42040,"lat":-5.25476,"lon":-44.6444},"2112407":{"id":2112407,"name":"Turiaçu","region":"Maranhão","population":35709,"lat":-1.65893,"lon":-45.3798},"2112456":{"id":2112456,"name":"Turilândia","region":"Maranhão","population":25868,"lat":-2.21638,"lon":-45.3044},"2112506":{"id":2112506,"name":"Tutóia","region":"Maranhão","population":59398,"lat":-2.76141,"lon":-42.2755},"2112605":{"id":2112605,"name":"Urbano Santos","region":"Maranhão","population":33459,"lat":-3.20642,"lon":-43.3878},"2112704":{"id":2112704,"name":"Vargem Grande","region":"Maranhão","population":57168,"lat":-3.53639,"lon":-43.917},"2112803":{"id":2112803,"name":"Viana","region":"Maranhão","population":52649,"lat":-3.20451,"lon":-44.9912},"2112852":{"id":2112852,"name":"Vila Nova dos Martírios","region":"Maranhão","population":13598,"lat":-5.18889,"lon":-48.1336},"2112902":{"id":2112902,"name":"Vitória do Mearim","region":"Maranhão","population":32861,"lat":-3.45125,"lon":-44.8643},"2113009":{"id":2113009,"name":"Vitorino Freire","region":"Maranhão","population":31522,"lat":-4.28184,"lon":-45.2505},"2114007":{"id":2114007,"name":"Zé Doca","region":"Maranhão","population":51956,"lat":-3.27014,"lon":-45.6553},"2200053":{"id":2200053,"name":"Acauã","region":"Piauí","population":7102,"lat":-8.21954,"lon":-41.0831},"2200103":{"id":2200103,"name":"Agricolândia","region":"Piauí","population":5131,"lat":-5.79676,"lon":-42.6664},"2200202":{"id":2200202,"name":"Água Branca","region":"Piauí","population":17470,"lat":-5.88856,"lon":-42.637},"2200251":{"id":2200251,"name":"Alagoinha do Piauí","region":"Piauí","population":7665,"lat":-7.00039,"lon":-40.9282},"2200277":{"id":2200277,"name":"Alegrete do Piauí","region":"Piauí","population":4918,"lat":-7.24196,"lon":-40.8566},"2200301":{"id":2200301,"name":"Alto Longá","region":"Piauí","population":14339,"lat":-5.25634,"lon":-42.2096},"2200400":{"id":2200400,"name":"Altos","region":"Piauí","population":40605,"lat":-5.03888,"lon":-42.4612},"2200459":{"id":2200459,"name":"Alvorada do Gurgueia","region":"Piauí","population":5445,"lat":-8.42418,"lon":-43.777},"2200509":{"id":2200509,"name":"Amarante","region":"Piauí","population":17604,"lat":-6.24304,"lon":-42.8433},"2200608":{"id":2200608,"name":"Angical do Piauí","region":"Piauí","population":6783,"lat":-6.08786,"lon":-42.74},"2200707":{"id":2200707,"name":"Anísio de Abreu","region":"Piauí","population":9938,"lat":-9.18564,"lon":-43.0494},"2200806":{"id":2200806,"name":"Antônio Almeida","region":"Piauí","population":3170,"lat":-7.21276,"lon":-44.1889},"2200905":{"id":2200905,"name":"Aroazes","region":"Piauí","population":5827,"lat":-6.11022,"lon":-41.7822},"2200954":{"id":2200954,"name":"Aroeiras do Itaim","region":"Piauí","population":2551,"lat":-7.24502,"lon":-41.5325},"2201002":{"id":2201002,"name":"Arraial","region":"Piauí","population":4720,"lat":-6.65075,"lon":-42.5418},"2201051":{"id":2201051,"name":"Assunção do Piauí","region":"Piauí","population":7863,"lat":-5.865,"lon":-41.0389},"2201101":{"id":2201101,"name":"Avelino Lopes","region":"Piauí","population":11326,"lat":-10.1345,"lon":-43.9563},"2201150":{"id":2201150,"name":"Baixa Grande do Ribeiro","region":"Piauí","population":11671,"lat":-7.84903,"lon":-45.219},"2201176":{"id":2201176,"name":"Barra d'Alcântara","region":"Piauí","population":3952,"lat":-6.51645,"lon":-42.1146},"2201200":{"id":2201200,"name":"Barras","region":"Piauí","population":47185,"lat":-4.24468,"lon":-42.2922},"2201309":{"id":2201309,"name":"Barreiras do Piauí","region":"Piauí","population":3352,"lat":-9.9296,"lon":-45.4702},"2201408":{"id":2201408,"name":"Barro Duro","region":"Piauí","population":7027,"lat":-5.81673,"lon":-42.5147},"2201507":{"id":2201507,"name":"Batalha","region":"Piauí","population":26905,"lat":-4.0223,"lon":-42.0787},"2201556":{"id":2201556,"name":"Bela Vista do Piauí","region":"Piauí","population":4030,"lat":-7.98809,"lon":-41.8675},"2201572":{"id":2201572,"name":"Belém do Piauí","region":"Piauí","population":3587,"lat":-7.36652,"lon":-40.9688},"2201606":{"id":2201606,"name":"Beneditinos","region":"Piauí","population":10473,"lat":-5.45676,"lon":-42.3638},"2201705":{"id":2201705,"name":"Bertolínia","region":"Piauí","population":5507,"lat":-7.63338,"lon":-43.9498},"2201739":{"id":2201739,"name":"Betânia do Piauí","region":"Piauí","population":6210,"lat":-8.14376,"lon":-40.7989},"2201770":{"id":2201770,"name":"Boa Hora","region":"Piauí","population":6815,"lat":-4.41404,"lon":-42.1357},"2201804":{"id":2201804,"name":"Bocaina","region":"Piauí","population":4505,"lat":-6.94124,"lon":-41.3168},"2201903":{"id":2201903,"name":"Bom Jesus","region":"Piauí","population":25387,"lat":-9.07124,"lon":-44.359},"2201919":{"id":2201919,"name":"Bom Princípio do Piauí","region":"Piauí","population":5651,"lat":-3.19631,"lon":-41.6403},"2201929":{"id":2201929,"name":"Bonfim do Piauí","region":"Piauí","population":5685,"lat":-9.1605,"lon":-42.8865},"2201945":{"id":2201945,"name":"Boqueirão do Piauí","region":"Piauí","population":6426,"lat":-4.48181,"lon":-42.1212},"2201960":{"id":2201960,"name":"Brasileira","region":"Piauí","population":8347,"lat":-4.1337,"lon":-41.7859},"2201988":{"id":2201988,"name":"Brejo do Piauí","region":"Piauí","population":3848,"lat":-8.20314,"lon":-42.8229},"2202000":{"id":2202000,"name":"Buriti dos Lopes","region":"Piauí","population":19807,"lat":-3.18259,"lon":-41.8695},"2202026":{"id":2202026,"name":"Buriti dos Montes","region":"Piauí","population":8264,"lat":-5.30584,"lon":-41.0933},"2202059":{"id":2202059,"name":"Cabeceiras do Piauí","region":"Piauí","population":10630,"lat":-4.4773,"lon":-42.3069},"2202075":{"id":2202075,"name":"Cajazeiras do Piauí","region":"Piauí","population":3573,"lat":-6.79667,"lon":-42.3903},"2202083":{"id":2202083,"name":"Cajueiro da Praia","region":"Piauí","population":7674,"lat":-2.93111,"lon":-41.3408},"2202091":{"id":2202091,"name":"Caldeirão Grande do Piauí","region":"Piauí","population":5781,"lat":-7.3314,"lon":-40.6366},"2202109":{"id":2202109,"name":"Campinas do Piauí","region":"Piauí","population":5620,"lat":-7.6593,"lon":-41.8775},"2202117":{"id":2202117,"name":"Campo Alegre do Fidalgo","region":"Piauí","population":5069,"lat":-8.38236,"lon":-41.8344},"2202133":{"id":2202133,"name":"Campo Grande do Piauí","region":"Piauí","population":5965,"lat":-7.12827,"lon":-41.0315},"2202174":{"id":2202174,"name":"Campo Largo do Piauí","region":"Piauí","population":7311,"lat":-3.80441,"lon":-42.64},"2202208":{"id":2202208,"name":"Campo Maior","region":"Piauí","population":46893,"lat":-4.8217,"lon":-42.1641},"2202251":{"id":2202251,"name":"Canavieira","region":"Piauí","population":3944,"lat":-7.68821,"lon":-43.7233},"2202307":{"id":2202307,"name":"Canto do Buriti","region":"Piauí","population":21258,"lat":-8.1111,"lon":-42.9517},"2202406":{"id":2202406,"name":"Capitão de Campos","region":"Piauí","population":11445,"lat":-4.457,"lon":-41.944},"2202455":{"id":2202455,"name":"Capitão Gervásio Oliveira","region":"Piauí","population":4114,"lat":-8.49655,"lon":-41.814},"2202505":{"id":2202505,"name":"Caracol","region":"Piauí","population":10964,"lat":-9.27933,"lon":-43.329},"2202539":{"id":2202539,"name":"Caraúbas do Piauí","region":"Piauí","population":5890,"lat":-3.47525,"lon":-41.8425},"2202554":{"id":2202554,"name":"Caridade do Piauí","region":"Piauí","population":5085,"lat":-7.73435,"lon":-40.9848},"2202604":{"id":2202604,"name":"Castelo do Piauí","region":"Piauí","population":19715,"lat":-5.31869,"lon":-41.5499},"2202653":{"id":2202653,"name":"Caxingó","region":"Piauí","population":5451,"lat":-3.41904,"lon":-41.8955},"2202703":{"id":2202703,"name":"Cocal","region":"Piauí","population":27845,"lat":-3.47279,"lon":-41.5546},"2202711":{"id":2202711,"name":"Cocal de Telha","region":"Piauí","population":4899,"lat":-4.5571,"lon":-41.9587},"2202729":{"id":2202729,"name":"Cocal dos Alves","region":"Piauí","population":6168,"lat":-3.62047,"lon":-41.4402},"2202737":{"id":2202737,"name":"Coivaras","region":"Piauí","population":4032,"lat":-5.09224,"lon":-42.208},"2202752":{"id":2202752,"name":"Colônia do Gurgueia","region":"Piauí","population":6516,"lat":-8.1837,"lon":-43.794},"2202778":{"id":2202778,"name":"Colônia do Piauí","region":"Piauí","population":7661,"lat":-7.22651,"lon":-42.1756},"2202802":{"id":2202802,"name":"Conceição do Canindé","region":"Piauí","population":4807,"lat":-7.87638,"lon":-41.5942},"2202851":{"id":2202851,"name":"Coronel José Dias","region":"Piauí","population":4685,"lat":-8.81397,"lon":-42.5232},"2202901":{"id":2202901,"name":"Corrente","region":"Piauí","population":26709,"lat":-10.4333,"lon":-45.1633},"2203008":{"id":2203008,"name":"Cristalândia do Piauí","region":"Piauí","population":8323,"lat":-10.6443,"lon":-45.1893},"2203107":{"id":2203107,"name":"Cristino Castro","region":"Piauí","population":10444,"lat":-8.82273,"lon":-44.223},"2203206":{"id":2203206,"name":"Curimatá","region":"Piauí","population":11426,"lat":-10.0326,"lon":-44.3002},"2203230":{"id":2203230,"name":"Currais","region":"Piauí","population":4968,"lat":-9.01175,"lon":-44.4062},"2203255":{"id":2203255,"name":"Curralinhos","region":"Piauí","population":4459,"lat":-5.60825,"lon":-42.8376},"2203271":{"id":2203271,"name":"Curral Novo do Piauí","region":"Piauí","population":5367,"lat":-7.8313,"lon":-40.8957},"2203305":{"id":2203305,"name":"Demerval Lobão","region":"Piauí","population":13840,"lat":-5.35875,"lon":-42.6776},"2203354":{"id":2203354,"name":"Dirceu Arcoverde","region":"Piauí","population":7029,"lat":-9.33939,"lon":-42.4348},"2203404":{"id":2203404,"name":"Dom Expedito Lopes","region":"Piauí","population":6922,"lat":-6.95332,"lon":-41.6396},"2203420":{"id":2203420,"name":"Domingos Mourão","region":"Piauí","population":4354,"lat":-4.2495,"lon":-41.2683},"2203453":{"id":2203453,"name":"Dom Inocêncio","region":"Piauí","population":9565,"lat":-9.00516,"lon":-41.9697},"2203503":{"id":2203503,"name":"Elesbão Veloso","region":"Piauí","population":14575,"lat":-6.19947,"lon":-42.1355},"2203602":{"id":2203602,"name":"Eliseu Martins","region":"Piauí","population":4930,"lat":-8.09629,"lon":-43.6705},"2203701":{"id":2203701,"name":"Esperantina","region":"Piauí","population":39848,"lat":-3.88863,"lon":-42.2324},"2203750":{"id":2203750,"name":"Fartura do Piauí","region":"Piauí","population":5319,"lat":-9.48342,"lon":-42.7912},"2203800":{"id":2203800,"name":"Flores do Piauí","region":"Piauí","population":4462,"lat":-7.78793,"lon":-42.918},"2203859":{"id":2203859,"name":"Floresta do Piauí","region":"Piauí","population":2560,"lat":-7.46682,"lon":-41.7883},"2203909":{"id":2203909,"name":"Floriano","region":"Piauí","population":60025,"lat":-6.77182,"lon":-43.0241},"2204006":{"id":2204006,"name":"Francinópolis","region":"Piauí","population":5347,"lat":-6.39334,"lon":-42.2591},"2204105":{"id":2204105,"name":"Francisco Ayres","region":"Piauí","population":4323,"lat":-6.62606,"lon":-42.6881},"2204154":{"id":2204154,"name":"Francisco Macedo","region":"Piauí","population":3200,"lat":-7.331,"lon":-40.788},"2204204":{"id":2204204,"name":"Francisco Santos","region":"Piauí","population":9372,"lat":-6.99491,"lon":-41.1288},"2204303":{"id":2204303,"name":"Fronteiras","region":"Piauí","population":11659,"lat":-7.08173,"lon":-40.6146},"2204352":{"id":2204352,"name":"Geminiano","region":"Piauí","population":5460,"lat":-7.15476,"lon":-41.3409},"2204402":{"id":2204402,"name":"Gilbués","region":"Piauí","population":10694,"lat":-9.83001,"lon":-45.3423},"2204501":{"id":2204501,"name":"Guadalupe","region":"Piauí","population":10497,"lat":-6.78285,"lon":-43.5594},"2204550":{"id":2204550,"name":"Guaribas","region":"Piauí","population":4568,"lat":-9.38647,"lon":-43.6943},"2204600":{"id":2204600,"name":"Hugo Napoleão","region":"Piauí","population":3879,"lat":-5.9886,"lon":-42.5598},"2204659":{"id":2204659,"name":"Ilha Grande","region":"Piauí","population":9457,"lat":-2.85774,"lon":-41.8186},"2204709":{"id":2204709,"name":"Inhuma","region":"Piauí","population":15319,"lat":-6.665,"lon":-41.7041},"2204808":{"id":2204808,"name":"Ipiranga do Piauí","region":"Piauí","population":9838,"lat":-6.82421,"lon":-41.7381},"2204907":{"id":2204907,"name":"Isaías Coelho","region":"Piauí","population":8566,"lat":-7.73597,"lon":-41.6735},"2205003":{"id":2205003,"name":"Itainópolis","region":"Piauí","population":11551,"lat":-7.44336,"lon":-41.4687},"2205102":{"id":2205102,"name":"Itaueira","region":"Piauí","population":11028,"lat":-7.59989,"lon":-43.0249},"2205151":{"id":2205151,"name":"Jacobina do Piauí","region":"Piauí","population":5729,"lat":-7.93063,"lon":-41.2075},"2205201":{"id":2205201,"name":"Jaicós","region":"Piauí","population":19170,"lat":-7.36229,"lon":-41.1371},"2205250":{"id":2205250,"name":"Jardim do Mulato","region":"Piauí","population":4513,"lat":-6.099,"lon":-42.63},"2205276":{"id":2205276,"name":"Jatobá do Piauí","region":"Piauí","population":4875,"lat":-4.77025,"lon":-41.817},"2205300":{"id":2205300,"name":"Jerumenha","region":"Piauí","population":4447,"lat":-7.09128,"lon":-43.5033},"2205359":{"id":2205359,"name":"João Costa","region":"Piauí","population":3005,"lat":-8.50736,"lon":-42.4264},"2205409":{"id":2205409,"name":"Joaquim Pires","region":"Piauí","population":14376,"lat":-3.50164,"lon":-42.1865},"2205458":{"id":2205458,"name":"Joca Marques","region":"Piauí","population":5466,"lat":-3.4804,"lon":-42.4255},"2205508":{"id":2205508,"name":"José de Freitas","region":"Piauí","population":39336,"lat":-4.75146,"lon":-42.5746},"2205516":{"id":2205516,"name":"Juazeiro do Piauí","region":"Piauí","population":5485,"lat":-5.17459,"lon":-41.6976},"2205524":{"id":2205524,"name":"Júlio Borges","region":"Piauí","population":5640,"lat":-10.3225,"lon":-44.2381},"2205532":{"id":2205532,"name":"Jurema","region":"Piauí","population":4777,"lat":-9.21992,"lon":-43.1337},"2205540":{"id":2205540,"name":"Lagoinha do Piauí","region":"Piauí","population":2858,"lat":-5.83074,"lon":-42.6223},"2205557":{"id":2205557,"name":"Lagoa Alegre","region":"Piauí","population":8577,"lat":-4.51539,"lon":-42.6309},"2205565":{"id":2205565,"name":"Lagoa do Barro do Piauí","region":"Piauí","population":4656,"lat":-8.47673,"lon":-41.5342},"2205573":{"id":2205573,"name":"Lagoa de São Francisco","region":"Piauí","population":6777,"lat":-4.38505,"lon":-41.5969},"2205581":{"id":2205581,"name":"Lagoa do Piauí","region":"Piauí","population":4075,"lat":-5.41864,"lon":-42.6437},"2205599":{"id":2205599,"name":"Lagoa do Sítio","region":"Piauí","population":5198,"lat":-6.50766,"lon":-41.5653},"2205607":{"id":2205607,"name":"Landri Sales","region":"Piauí","population":5283,"lat":-7.25922,"lon":-43.9364},"2205706":{"id":2205706,"name":"Luís Correia","region":"Piauí","population":30438,"lat":-2.88438,"lon":-41.6641},"2205805":{"id":2205805,"name":"Luzilândia","region":"Piauí","population":25504,"lat":-3.4683,"lon":-42.3718},"2205854":{"id":2205854,"name":"Madeiro","region":"Piauí","population":8342,"lat":-3.48624,"lon":-42.4981},"2205904":{"id":2205904,"name":"Manoel Emídio","region":"Piauí","population":5351,"lat":-8.01234,"lon":-43.8755},"2205953":{"id":2205953,"name":"Marcolândia","region":"Piauí","population":8543,"lat":-7.44169,"lon":-40.6602},"2206001":{"id":2206001,"name":"Marcos Parente","region":"Piauí","population":4547,"lat":-7.11565,"lon":-43.8926},"2206050":{"id":2206050,"name":"Massapê do Piauí","region":"Piauí","population":6449,"lat":-7.47469,"lon":-41.1103},"2206100":{"id":2206100,"name":"Matias Olímpio","region":"Piauí","population":10958,"lat":-3.71492,"lon":-42.5507},"2206209":{"id":2206209,"name":"Miguel Alves","region":"Piauí","population":33833,"lat":-4.16857,"lon":-42.8963},"2206308":{"id":2206308,"name":"Miguel Leão","region":"Piauí","population":1242,"lat":-5.68077,"lon":-42.7436},"2206357":{"id":2206357,"name":"Milton Brandão","region":"Piauí","population":6608,"lat":-4.68295,"lon":-41.4173},"2206407":{"id":2206407,"name":"Monsenhor Gil","region":"Piauí","population":10564,"lat":-5.562,"lon":-42.6075},"2206506":{"id":2206506,"name":"Monsenhor Hipólito","region":"Piauí","population":7767,"lat":-6.99275,"lon":-41.026},"2206605":{"id":2206605,"name":"Monte Alegre do Piauí","region":"Piauí","population":10615,"lat":-9.75364,"lon":-45.3037},"2206654":{"id":2206654,"name":"Morro Cabeça no Tempo","region":"Piauí","population":4530,"lat":-9.71891,"lon":-43.9072},"2206670":{"id":2206670,"name":"Morro do Chapéu do Piauí","region":"Piauí","population":6811,"lat":-3.73337,"lon":-42.3024},"2206696":{"id":2206696,"name":"Murici dos Portelas","region":"Piauí","population":9209,"lat":-3.319,"lon":-42.094},"2206704":{"id":2206704,"name":"Nazaré do Piauí","region":"Piauí","population":7322,"lat":-6.97023,"lon":-42.6773},"2206720":{"id":2206720,"name":"Nazária","region":"Piauí","population":8602,"lat":-5.35128,"lon":-42.8153},"2206753":{"id":2206753,"name":"Nossa Senhora de Nazaré","region":"Piauí","population":4891,"lat":-4.63019,"lon":-42.173},"2206803":{"id":2206803,"name":"Nossa Senhora dos Remédios","region":"Piauí","population":8723,"lat":-3.97574,"lon":-42.6184},"2206902":{"id":2206902,"name":"Novo Oriente do Piauí","region":"Piauí","population":6556,"lat":-6.44901,"lon":-41.9261},"2206951":{"id":2206951,"name":"Novo Santo Antônio","region":"Piauí","population":3003,"lat":-5.28749,"lon":-41.9325},"2207009":{"id":2207009,"name":"Oeiras","region":"Piauí","population":37085,"lat":-7.01915,"lon":-42.1283},"2207108":{"id":2207108,"name":"Olho d'Água do Piauí","region":"Piauí","population":2468,"lat":-5.84125,"lon":-42.5594},"2207207":{"id":2207207,"name":"Padre Marcos","region":"Piauí","population":6873,"lat":-7.35101,"lon":-40.8997},"2207306":{"id":2207306,"name":"Paes Landim","region":"Piauí","population":4126,"lat":-7.77375,"lon":-42.2474},"2207355":{"id":2207355,"name":"Pajeú do Piauí","region":"Piauí","population":3404,"lat":-7.85508,"lon":-42.8248},"2207405":{"id":2207405,"name":"Palmeira do Piauí","region":"Piauí","population":5036,"lat":-8.73076,"lon":-44.2466},"2207504":{"id":2207504,"name":"Palmeirais","region":"Piauí","population":14587,"lat":-5.97086,"lon":-43.056},"2207553":{"id":2207553,"name":"Paquetá","region":"Piauí","population":3937,"lat":-7.10303,"lon":-41.7},"2207603":{"id":2207603,"name":"Parnaguá","region":"Piauí","population":10819,"lat":-10.2166,"lon":-44.63},"2207702":{"id":2207702,"name":"Parnaíba","region":"Piauí","population":153482,"lat":-2.90585,"lon":-41.7754},"2207751":{"id":2207751,"name":"Passagem Franca do Piauí","region":"Piauí","population":4323,"lat":-5.86036,"lon":-42.4436},"2207777":{"id":2207777,"name":"Patos do Piauí","region":"Piauí","population":6406,"lat":-7.67231,"lon":-41.2408},"2207793":{"id":2207793,"name":"Pau d'Arco do Piauí","region":"Piauí","population":4065,"lat":-5.26072,"lon":-42.3908},"2207801":{"id":2207801,"name":"Paulistana","region":"Piauí","population":20554,"lat":-8.13436,"lon":-41.1431},"2207850":{"id":2207850,"name":"Pavussu","region":"Piauí","population":3669,"lat":-7.96059,"lon":-43.2284},"2207900":{"id":2207900,"name":"Pedro II","region":"Piauí","population":38778,"lat":-4.42585,"lon":-41.4482},"2207934":{"id":2207934,"name":"Pedro Laurentino","region":"Piauí","population":2544,"lat":-8.06807,"lon":-42.2847},"2207959":{"id":2207959,"name":"Nova Santa Rita","region":"Piauí","population":4383,"lat":-8.09707,"lon":-42.0471},"2208007":{"id":2208007,"name":"Picos","region":"Piauí","population":78431,"lat":-7.07721,"lon":-41.467},"2208106":{"id":2208106,"name":"Pimenteiras","region":"Piauí","population":12139,"lat":-6.23839,"lon":-41.4113},"2208205":{"id":2208205,"name":"Pio IX","region":"Piauí","population":18459,"lat":-6.83002,"lon":-40.6083},"2208304":{"id":2208304,"name":"Piracuruca","region":"Piauí","population":28874,"lat":-3.93335,"lon":-41.7088},"2208403":{"id":2208403,"name":"Piripiri","region":"Piauí","population":63787,"lat":-4.27157,"lon":-41.7716},"2208502":{"id":2208502,"name":"Porto","region":"Piauí","population":12608,"lat":-3.88815,"lon":-42.6998},"2208551":{"id":2208551,"name":"Porto Alegre do Piauí","region":"Piauí","population":2720,"lat":-6.96423,"lon":-44.1837},"2208601":{"id":2208601,"name":"Prata do Piauí","region":"Piauí","population":3150,"lat":-5.67265,"lon":-42.2046},"2208650":{"id":2208650,"name":"Queimada Nova","region":"Piauí","population":9017,"lat":-8.57064,"lon":-41.4106},"2208700":{"id":2208700,"name":"Redenção do Gurgueia","region":"Piauí","population":8796,"lat":-9.47937,"lon":-44.5811},"2208809":{"id":2208809,"name":"Regeneração","region":"Piauí","population":17979,"lat":-6.23115,"lon":-42.6842},"2208858":{"id":2208858,"name":"Riacho Frio","region":"Piauí","population":4309,"lat":-10.1244,"lon":-44.9503},"2208874":{"id":2208874,"name":"Ribeira do Piauí","region":"Piauí","population":4488,"lat":-7.69028,"lon":-42.7128},"2208908":{"id":2208908,"name":"Ribeiro Gonçalves","region":"Piauí","population":7376,"lat":-7.55651,"lon":-45.2447},"2209005":{"id":2209005,"name":"Rio Grande do Piauí","region":"Piauí","population":6433,"lat":-7.78029,"lon":-43.1369},"2209104":{"id":2209104,"name":"Santa Cruz do Piauí","region":"Piauí","population":6247,"lat":-7.1785,"lon":-41.7609},"2209153":{"id":2209153,"name":"Santa Cruz dos Milagres","region":"Piauí","population":4033,"lat":-5.80581,"lon":-41.9506},"2209203":{"id":2209203,"name":"Santa Filomena","region":"Piauí","population":6254,"lat":-9.11228,"lon":-45.9116},"2209302":{"id":2209302,"name":"Santa Luz","region":"Piauí","population":5882,"lat":-8.9488,"lon":-44.1296},"2209351":{"id":2209351,"name":"Santana do Piauí","region":"Piauí","population":4642,"lat":-6.94696,"lon":-41.5178},"2209377":{"id":2209377,"name":"Santa Rosa do Piauí","region":"Piauí","population":5255,"lat":-6.79581,"lon":-42.2814},"2209401":{"id":2209401,"name":"Santo Antônio de Lisboa","region":"Piauí","population":6441,"lat":-6.98676,"lon":-41.2252},"2209450":{"id":2209450,"name":"Santo Antônio dos Milagres","region":"Piauí","population":2166,"lat":-6.04647,"lon":-42.7123},"2209500":{"id":2209500,"name":"Santo Inácio do Piauí","region":"Piauí","population":3803,"lat":-7.42072,"lon":-41.9063},"2209559":{"id":2209559,"name":"São Braz do Piauí","region":"Piauí","population":4451,"lat":-9.05797,"lon":-43.0076},"2209609":{"id":2209609,"name":"São Félix do Piauí","region":"Piauí","population":2932,"lat":-5.93485,"lon":-42.1172},"2209658":{"id":2209658,"name":"São Francisco de Assis do Piauí","region":"Piauí","population":5779,"lat":-8.23599,"lon":-41.6873},"2209708":{"id":2209708,"name":"São Francisco do Piauí","region":"Piauí","population":6420,"lat":-7.2463,"lon":-42.541},"2209757":{"id":2209757,"name":"São Gonçalo do Gurgueia","region":"Piauí","population":3057,"lat":-10.0319,"lon":-45.3092},"2209807":{"id":2209807,"name":"São Gonçalo do Piauí","region":"Piauí","population":5030,"lat":-5.99393,"lon":-42.7095},"2209856":{"id":2209856,"name":"São João da Canabrava","region":"Piauí","population":4614,"lat":-6.81203,"lon":-41.3415},"2209872":{"id":2209872,"name":"São João da Fronteira","region":"Piauí","population":6064,"lat":-3.95497,"lon":-41.2569},"2209906":{"id":2209906,"name":"São João da Serra","region":"Piauí","population":6122,"lat":-5.51081,"lon":-41.8923},"2209955":{"id":2209955,"name":"São João da Varjota","region":"Piauí","population":4848,"lat":-6.94082,"lon":-41.8889},"2209971":{"id":2209971,"name":"São João do Arraial","region":"Piauí","population":8038,"lat":-3.8186,"lon":-42.4459},"2210003":{"id":2210003,"name":"São João do Piauí","region":"Piauí","population":20662,"lat":-8.35466,"lon":-42.2559},"2210052":{"id":2210052,"name":"São José do Divino","region":"Piauí","population":5354,"lat":-3.81411,"lon":-41.8308},"2210102":{"id":2210102,"name":"São José do Peixe","region":"Piauí","population":3741,"lat":-7.48554,"lon":-42.5672},"2210201":{"id":2210201,"name":"São José do Piauí","region":"Piauí","population":6700,"lat":-6.87194,"lon":-41.4731},"2210300":{"id":2210300,"name":"São Julião","region":"Piauí","population":6371,"lat":-7.08391,"lon":-40.8246},"2210359":{"id":2210359,"name":"São Lourenço do Piauí","region":"Piauí","population":4577,"lat":-9.16463,"lon":-42.5496},"2210375":{"id":2210375,"name":"São Luís do Piauí","region":"Piauí","population":2646,"lat":-6.81936,"lon":-41.3175},