[{"id":"3550308","name":"São Paulo","region":"São Paulo","population":12325232,"lat":"-23.55","lon":"-46.63"},{"id":"3304557","name":"Rio de Janeiro","region":"Rio de Janeiro","population":6747815,"lat":"-22.9","lon":"-43.2"},{"id":"5300108","name":"Brasília","region":"Distrito Federal","population":3055149,"lat":"-15.77","lon":"-47.93"},{"id":"2927408","name":"Salvador","region":"Bahia","population":2886698,"lat":"-12.97","lon":"-38.51"},{"id":"2304400","name":"Fortaleza","region":"Ceará","population":2686612,"lat":"-3.71","lon":"-38.54"},{"id":"3106200","name":"Belo Horizonte","region":"Minas Gerais","population":2521564,"lat":"-19.81","lon":"-43.95"},{"id":"1302603","name":"Manaus","region":"Amazonas","population":2219580,"lat":"-3.1","lon":"-60.02"},{"id":"4106902","name":"Curitiba","region":"Paraná","population":1948626,"lat":"-25.42","lon":"-49.27"},{"id":"2611606","name":"Recife","region":"Pernambuco","population":1653461,"lat":"-8.05","lon":"-34.88"},{"id":"5208707","name":"Goiânia","region":"Goiás","population":1536097,"lat":"-16.67","lon":"-49.25"},{"id":"1501402","name":"Belém","region":"Pará","population":1499641,"lat":"-1.45","lon":"-48.5"},{"id":"4314902","name":"Porto Alegre","region":"Rio Grande do Sul","population":1488252,"lat":"-30.03","lon":"-51.22"},{"id":"3518800","name":"Guarulhos","region":"São Paulo","population":1392121,"lat":"-23.46","lon":"-46.53"},{"id":"3509502","name":"Campinas","region":"São Paulo","population":1213792,"lat":"-22.9","lon":"-47.06"},{"id":"2111300","name":"São Luís","region":"Maranhão","population":1108975,"lat":"-2.52","lon":"-44.3"},{"id":"3304904","name":"São Gonçalo","region":"Rio de Janeiro","population":1091737,"lat":"-22.82","lon":"-43.05"},{"id":"2704302","name":"Maceió","region":"Alagoas","population":1025360,"lat":"-9.66","lon":"-35.73"},{"id":"3301702","name":"Duque de Caxias","region":"Rio de Janeiro","population":924624,"lat":"-22.78","lon":"-43.31"},{"id":"5002704","name":"Campo Grande","region":"Mato Grosso do Sul","population":906092,"lat":"-20.44","lon":"-54.64"},{"id":"2408102","name":"Natal","region":"Rio Grande do Norte","population":890480,"lat":"-5.79","lon":"-35.2"},{"id":"2211001","name":"Teresina","region":"Piauí","population":868075,"lat":"-5.08","lon":"-42.8"},{"id":"3548708","name":"São Bernardo do Campo","region":"São Paulo","population":844483,"lat":"-23.69","lon":"-46.56"},{"id":"3303500","name":"Nova Iguaçu","region":"Rio de Janeiro","population":823302,"lat":"-22.75","lon":"-43.45"},{"id":"2507507","name":"João Pessoa","region":"Paraíba","population":817511,"lat":"-7.11","lon":"-34.86"},{"id":"3549904","name":"São José dos Campos","region":"São Paulo","population":729737,"lat":"-23.17","lon":"-45.88"},{"id":"3547809","name":"Santo André","region":"São Paulo","population":721368,"lat":"-23.66","lon":"-46.53"},{"id":"3543402","name":"Ribeirão Preto","region":"São Paulo","population":711825,"lat":"-21.17","lon":"-47.81"},{"id":"2607901","name":"Jaboatão dos Guararapes","region":"Pernambuco","population":706867,"lat":"-8.11","lon":"-35.01"},{"id":"3534401","name":"Osasco","region":"São Paulo","population":699944,"lat":"-23.53","lon":"-46.79"},{"id":"3170206","name":"Uberlândia","region":"Minas Gerais","population":699097,"lat":"-18.91","lon":"-48.27"},{"id":"3552205","name":"Sorocaba","region":"São Paulo","population":687357,"lat":"-23.5","lon":"-47.45"},{"id":"3118601","name":"Contagem","region":"Minas Gerais","population":668949,"lat":"-19.93","lon":"-44.05"},{"id":"2800308","name":"Aracaju","region":"Sergipe","population":664908,"lat":"-10.91","lon":"-37.07"},{"id":"2910800","name":"Feira de Santana","region":"Bahia","population":619609,"lat":"-12.26","lon":"-38.96"},{"id":"5103403","name":"Cuiabá","region":"Mato Grosso","population":618124,"lat":"-15.59","lon":"-56.09"},{"id":"4209102","name":"Joinville","region":"Santa Catarina","population":597658,"lat":"-26.3","lon":"-48.84"},{"id":"5201405","name":"Aparecida de Goiânia","region":"Goiás","population":590146,"lat":"-16.82","lon":"-49.24"},{"id":"4113700","name":"Londrina","region":"Paraná","population":575377,"lat":"-23.3","lon":"-51.16"},{"id":"3136702","name":"Juiz de Fora","region":"Minas Gerais","population":573285,"lat":"-21.76","lon":"-43.34"},{"id":"1100205","name":"Porto Velho","region":"Rondônia","population":539354,"lat":"-8.76","lon":"-63.9"},{"id":"1500800","name":"Ananindeua","region":"Pará","population":535547,"lat":"-1.36","lon":"-48.37"},{"id":"3205002","name":"Serra","region":"Espírito Santo","population":527240,"lat":"-20.12","lon":"-40.3"},{"id":"4305108","name":"Caxias do Sul","region":"Rio Grande do Sul","population":517451,"lat":"-29.16","lon":"-51.17"},{"id":"3303302","name":"Niterói","region":"Rio de Janeiro","population":515317,"lat":"-22.88","lon":"-43.1"},{"id":"3300456","name":"Belford Roxo","region":"Rio de Janeiro","population":513118,"lat":"-22.76","lon":"-43.39"},{"id":"1600303","name":"Macapá","region":"Amapá","population":512902,"lat":"0.03","lon":"-51.06"},{"id":"3301009","name":"Campos dos Goytacazes","region":"Rio de Janeiro","population":511168,"lat":"-21.75","lon":"-41.32"},{"id":"4205407","name":"Florianópolis","region":"Santa Catarina","population":508826,"lat":"-27.59","lon":"-48.54"},{"id":"3205200","name":"Vila Velha","region":"Espírito Santo","population":501325,"lat":"-20.32","lon":"-40.29"},{"id":"3529401","name":"Mauá","region":"São Paulo","population":477552,"lat":"-23.66","lon":"-46.46"},{"id":"3305109","name":"São João de Meriti","region":"Rio de Janeiro","population":472906,"lat":"-22.8","lon":"-43.37"},{"id":"3549805","name":"São José do Rio Preto","region":"São Paulo","population":464983,"lat":"-20.81","lon":"-49.37"},{"id":"3530607","name":"Mogi das Cruzes","region":"São Paulo","population":450785,"lat":"-23.52","lon":"-46.18"},{"id":"3106705","name":"Betim","region":"Minas Gerais","population":444784,"lat":"-19.96","lon":"-44.19"},{"id":"3548500","name":"Santos","region":"São Paulo","population":433656,"lat":"-23.96","lon":"-46.33"},{"id":"4115200","name":"Maringá","region":"Paraná","population":430157,"lat":"-23.42","lon":"-51.93"},{"id":"3513801","name":"Diadema","region":"São Paulo","population":426757,"lat":"-23.68","lon":"-46.62"},{"id":"3525904","name":"Jundiaí","region":"São Paulo","population":423006,"lat":"-23.18","lon":"-46.88"},{"id":"1400100","name":"Boa Vista","region":"Roraima","population":419652,"lat":"2.81","lon":"-60.67"},{"id":"3143302","name":"Montes Claros","region":"Minas Gerais","population":413487,"lat":"-16.73","lon":"-43.86"},{"id":"1200401","name":"Rio Branco","region":"Acre","population":413418,"lat":"-9.97","lon":"-67.8"},{"id":"2504009","name":"Campina Grande","region":"Paraíba","population":411807,"lat":"-7.23","lon":"-35.88"},{"id":"3538709","name":"Piracicaba","region":"São Paulo","population":407252,"lat":"-22.72","lon":"-47.64"},{"id":"3510609","name":"Carapicuíba","region":"São Paulo","population":403183,"lat":"-23.52","lon":"-46.83"},{"id":"2609600","name":"Olinda","region":"Pernambuco","population":393115,"lat":"-8","lon":"-34.85"},{"id":"5201108","name":"Anápolis","region":"Goiás","population":391772,"lat":"-16.32","lon":"-48.95"},{"id":"3201308","name":"Cariacica","region":"Espírito Santo","population":383917,"lat":"-20.26","lon":"-40.41"},{"id":"3506003","name":"Bauru","region":"São Paulo","population":379297,"lat":"-22.31","lon":"-49.06"},{"id":"3523107","name":"Itaquaquecetuba","region":"São Paulo","population":375011,"lat":"-23.48","lon":"-46.34"},{"id":"3551009","name":"São Vicente","region":"São Paulo","population":368355,"lat":"-23.96","lon":"-46.39"},{"id":"3205309","name":"Vitória","region":"Espírito Santo","population":365855,"lat":"-20.31","lon":"-40.33"},{"id":"2604106","name":"Caruaru","region":"Pernambuco","population":365278,"lat":"-8.28","lon":"-35.97"},{"id":"2303709","name":"Caucaia","region":"Ceará","population":365212,"lat":"-3.73","lon":"-38.65"},{"id":"4202404","name":"Blumenau","region":"Santa Catarina","population":361855,"lat":"-26.91","lon":"-49.06"},{"id":"3516200","name":"Franca","region":"São Paulo","population":355901,"lat":"-20.53","lon":"-47.4"},{"id":"4119905","name":"Ponta Grossa","region":"Paraná","population":355336,"lat":"-25.09","lon":"-50.16"},{"id":"2611101","name":"Petrolina","region":"Pernambuco","population":354317,"lat":"-9.39","lon":"-40.5"},{"id":"4304606","name":"Canoas","region":"Rio Grande do Sul","population":348208,"lat":"-29.91","lon":"-51.18"},{"id":"4314407","name":"Pelotas","region":"Rio Grande do Sul","population":343132,"lat":"-31.77","lon":"-52.34"},{"id":"2933307","name":"Vitória da Conquista","region":"Bahia","population":341128,"lat":"-14.86","lon":"-40.83"},{"id":"3154606","name":"Ribeirão das Neves","region":"Minas Gerais","population":338197,"lat":"-19.76","lon":"-44.08"},{"id":"3170107","name":"Uberaba","region":"Minas Gerais","population":337092,"lat":"-19.74","lon":"-47.93"},{"id":"2610707","name":"Paulista","region":"Pernambuco","population":334376,"lat":"-7.94","lon":"-34.87"},{"id":"4104808","name":"Cascavel","region":"Paraná","population":332333,"lat":"-24.95","lon":"-53.45"},{"id":"3541000","name":"Praia Grande","region":"São Paulo","population":330845,"lat":"-24","lon":"-46.4"},{"id":"4125506","name":"São José dos Pinhais","region":"Paraná","population":329058,"lat":"-25.53","lon":"-49.2"},{"id":"3518701","name":"Guarujá","region":"São Paulo","population":322750,"lat":"-23.99","lon":"-46.25"},{"id":"3554102","name":"Taubaté","region":"São Paulo","population":317915,"lat":"-23.02","lon":"-45.55"},{"id":"3526902","name":"Limeira","region":"São Paulo","population":308482,"lat":"-22.56","lon":"-47.4"},{"id":"3303906","name":"Petrópolis","region":"Rio de Janeiro","population":306678,"lat":"-22.5","lon":"-43.17"},{"id":"1506807","name":"Santarém","region":"Pará","population":306480,"lat":"-2.44","lon":"-54.7"},{"id":"1721000","name":"Palmas","region":"Tocantins","population":306296,"lat":"-10.16","lon":"-48.33"},{"id":"2905701","name":"Camaçari","region":"Bahia","population":304302,"lat":"-12.69","lon":"-38.32"},{"id":"2408003","name":"Mossoró","region":"Rio Grande do Norte","population":300618,"lat":"-5.18","lon":"-37.34"},{"id":"3552502","name":"Suzano","region":"São Paulo","population":300559,"lat":"-23.54","lon":"-46.31"},{"id":"3552809","name":"Taboão da Serra","region":"São Paulo","population":293652,"lat":"-23.6","lon":"-46.75"},{"id":"5108402","name":"Várzea Grande","region":"Mato Grosso","population":287526,"lat":"-15.64","lon":"-56.13"},{"id":"3552403","name":"Sumaré","region":"São Paulo","population":286211,"lat":"-22.82","lon":"-47.26"},{"id":"4316907","name":"Santa Maria","region":"Rio Grande do Sul","population":283677,"lat":"-29.68","lon":"-53.8"},{"id":"4309209","name":"Gravataí","region":"Rio Grande do Sul","population":283620,"lat":"-29.94","lon":"-50.99"},{"id":"1504208","name":"Marabá","region":"Pará","population":283542,"lat":"-5.36","lon":"-49.11"},{"id":"3127701","name":"Governador Valadares","region":"Minas Gerais","population":281046,"lat":"-18.85","lon":"-41.94"},{"id":"3505708","name":"Barueri","region":"São Paulo","population":276982,"lat":"-23.51","lon":"-46.87"},{"id":"3515004","name":"Embu das Artes","region":"São Paulo","population":276535,"lat":"-23.64","lon":"-46.85"},{"id":"2307304","name":"Juazeiro do Norte","region":"Ceará","population":276264,"lat":"-7.21","lon":"-39.31"},{"id":"3306305","name":"Volta Redonda","region":"Rio de Janeiro","population":273988,"lat":"-22.52","lon":"-44.1"},{"id":"2403251","name":"Parnamirim","region":"Rio Grande do Norte","population":267036,"lat":"-5.91","lon":"-35.26"},{"id":"3131307","name":"Ipatinga","region":"Minas Gerais","population":265409,"lat":"-19.46","lon":"-42.53"},{"id":"3302403","name":"Macaé","region":"Rio de Janeiro","population":261501,"lat":"-22.37","lon":"-41.78"},{"id":"2105302","name":"Imperatriz","region":"Maranhão","population":259337,"lat":"-5.52","lon":"-47.47"},{"id":"4108304","name":"Foz do Iguaçu","region":"Paraná","population":258248,"lat":"-25.54","lon":"-54.58"},{"id":"4323002","name":"Viamão","region":"Rio Grande do Sul","population":256302,"lat":"-30.08","lon":"-51.02"},{"id":"3520509","name":"Indaiatuba","region":"São Paulo","population":256223,"lat":"-23.09","lon":"-47.21"},{"id":"3548906","name":"São Carlos","region":"São Paulo","population":254484,"lat":"-22.01","lon":"-47.89"},{"id":"3513009","name":"Cotia","region":"São Paulo","population":253608,"lat":"-23.6","lon":"-46.91"},{"id":"4216602","name":"São José","region":"Santa Catarina","population":250181,"lat":"-27.61","lon":"-48.62"},{"id":"4313409","name":"Novo Hamburgo","region":"Rio Grande do Sul","population":247032,"lat":"-29.67","lon":"-51.13"},{"id":"4105805","name":"Colombo","region":"Paraná","population":246540,"lat":"-25.29","lon":"-49.22"},{"id":"3302502","name":"Magé","region":"Rio de Janeiro","population":246433,"lat":"-22.65","lon":"-43.04"},{"id":"3301900","name":"Itaboraí","region":"Rio de Janeiro","population":242543,"lat":"-22.74","lon":"-42.85"},{"id":"3501608","name":"Americana","region":"São Paulo","population":242018,"lat":"-22.73","lon":"-47.33"},{"id":"3167202","name":"Sete Lagoas","region":"Minas Gerais","population":241835,"lat":"-19.46","lon":"-44.24"},{"id":"5218805","name":"Rio Verde","region":"Goiás","population":241518,"lat":"-17.79","lon":"-50.92"},{"id":"3522505","name":"Itapevi","region":"São Paulo","population":240961,"lat":"-23.54","lon":"-46.93"},{"id":"3529005","name":"Marília","region":"São Paulo","population":240590,"lat":"-22.21","lon":"-49.94"},{"id":"3122306","name":"Divinópolis","region":"Minas Gerais","population":240408,"lat":"-20.13","lon":"-44.88"},{"id":"4318705","name":"São Leopoldo","region":"Rio Grande do Sul","population":238648,"lat":"-29.76","lon":"-51.14"},{"id":"3503208","name":"Araraquara","region":"São Paulo","population":238339,"lat":"-21.79","lon":"-48.17"},{"id":"5107602","name":"Rondonópolis","region":"Mato Grosso","population":236042,"lat":"-16.47","lon":"-54.63"},{"id":"3524402","name":"Jacareí","region":"São Paulo","population":235416,"lat":"-23.3","lon":"-45.96"},{"id":"3519071","name":"Hortolândia","region":"São Paulo","population":234259,"lat":"-22.85","lon":"-47.22"},{"id":"2700300","name":"Arapiraca","region":"Alagoas","population":233047,"lat":"-9.75","lon":"-36.66"},{"id":"3300704","name":"Cabo Frio","region":"Rio de Janeiro","population":230378,"lat":"-22.87","lon":"-42.01"},{"id":"3541406","name":"Presidente Prudente","region":"São Paulo","population":230371,"lat":"-22.12","lon":"-51.38"},{"id":"2307650","name":"Maracanaú","region":"Ceará","population":229458,"lat":"-3.87","lon":"-38.62"},{"id":"5003702","name":"Dourados","region":"Mato Grosso do Sul","population":225495,"lat":"-22.22","lon":"-54.8"},{"id":"4204202","name":"Chapecó","region":"Santa Catarina","population":224013,"lat":"-27.09","lon":"-52.61"},{"id":"4208203","name":"Itajaí","region":"Santa Catarina","population":223112,"lat":"-26.9","lon":"-48.66"},{"id":"3157807","name":"Santa Luzia","region":"Minas Gerais","population":220444,"lat":"-19.77","lon":"-43.85"},{"id":"2918407","name":"Juazeiro","region":"Bahia","population":218162,"lat":"-9.41","lon":"-40.5"},{"id":"5200258","name":"Águas Lindas de Goiás","region":"Goiás","population":217698,"lat":"-15.76","lon":"-48.28"},{"id":"4204608","name":"Criciúma","region":"Santa Catarina","population":217311,"lat":"-28.67","lon":"-49.36"},{"id":"2914802","name":"Itabuna","region":"Bahia","population":213685,"lat":"-14.78","lon":"-39.27"},{"id":"1505536","name":"Parauapebas","region":"Pará","population":213576,"lat":"-6.06","lon":"-49.9"},{"id":"4315602","name":"Rio Grande","region":"Rio Grande do Sul","population":211965,"lat":"-32.03","lon":"-52.09"},{"id":"5212501","name":"Luziânia","region":"Goiás","population":211508,"lat":"-16.25","lon":"-47.95"},{"id":"4300604","name":"Alvorada","region":"Rio Grande do Sul","population":211352,"lat":"-29.98","lon":"-51.08"},{"id":"2312908","name":"Sobral","region":"Ceará","population":210711,"lat":"-3.67","lon":"-40.23"},{"id":"3201209","name":"Cachoeiro de Itapemirim","region":"Espírito Santo","population":210589,"lat":"-20.84","lon":"-41.11"},{"id":"2602902","name":"Cabo de Santo Agostinho","region":"Pernambuco","population":208944,"lat":"-8.28","lon":"-35.03"},{"id":"3543907","name":"Rio Claro","region":"São Paulo","population":208008,"lat":"-22.41","lon":"-47.56"},{"id":"3300100","name":"Angra dos Reis","region":"Rio de Janeiro","population":207044,"lat":"-23","lon":"-44.31"},{"id":"4314100","name":"Passo Fundo","region":"Rio Grande do Sul","population":204722,"lat":"-28.26","lon":"-52.4"},{"id":"1502400","name":"Castanhal","region":"Pará","population":203251,"lat":"-1.29","lon":"-47.92"},{"id":"2919207","name":"Lauro de Freitas","region":"Bahia","population":201635,"lat":"-12.89","lon":"-38.32"},{"id":"3502804","name":"Araçatuba","region":"São Paulo","population":198129,"lat":"-21.2","lon":"-50.43"},{"id":"3515707","name":"Ferraz de Vasconcelos","region":"São Paulo","population":196500,"lat":"-23.54","lon":"-46.36"},{"id":"3545803","name":"Santa Bárbara d'Oeste","region":"São Paulo","population":194390,"lat":"-22.75","lon":"-47.41"},{"id":"3303401","name":"Nova Friburgo","region":"Rio de Janeiro","population":191158,"lat":"-22.28","lon":"-42.53"},{"id":"2804805","name":"Nossa Senhora do Socorro","region":"Sergipe","population":185706,"lat":"-10.85","lon":"-37.12"},{"id":"3300407","name":"Barra Mansa","region":"Rio de Janeiro","population":184833,"lat":"-22.54","lon":"-44.17"},{"id":"3305802","name":"Teresópolis","region":"Rio de Janeiro","population":184240,"lat":"-22.41","lon":"-42.96"},{"id":"1702109","name":"Araguaína","region":"Tocantins","population":183381,"lat":"-7.19","lon":"-48.2"},{"id":"4109401","name":"Guarapuava","region":"Paraná","population":182644,"lat":"-25.39","lon":"-51.45"},{"id":"3129806","name":"Ibirité","region":"Minas Gerais","population":182153,"lat":"-20.02","lon":"-44.05"},{"id":"4208906","name":"Jaraguá do Sul","region":"Santa Catarina","population":181173,"lat":"-26.48","lon":"-49.06"},{"id":"2111201","name":"São José de Ribamar","region":"Maranhão","population":179028,"lat":"-2.56","lon":"-44.05"},{"id":"3522208","name":"Itapecerica da Serra","region":"São Paulo","population":177662,"lat":"-23.71","lon":"-46.84"},{"id":"3516309","name":"Francisco Morato","region":"São Paulo","population":177633,"lat":"-23.28","lon":"-46.74"},{"id":"3203205","name":"Linhares","region":"Espírito Santo","population":176688,"lat":"-19.39","lon":"-40.07"},{"id":"3302858","name":"Mesquita","region":"Rio de Janeiro","population":176569,"lat":"-22.78","lon":"-43.42"},{"id":"3523909","name":"Itu","region":"São Paulo","population":175568,"lat":"-23.26","lon":"-47.29"},{"id":"4211900","name":"Palhoça","region":"Santa Catarina","population":175272,"lat":"-27.64","lon":"-48.66"},{"id":"5221858","name":"Valparaíso de Goiás","region":"Goiás","population":172135,"lat":"-16.06","lon":"-47.97"},{"id":"3507605","name":"Bragança Paulista","region":"São Paulo","population":170533,"lat":"-22.95","lon":"-46.54"},{"id":"2112209","name":"Timon","region":"Maranhão","population":170222,"lat":"-5.09","lon":"-42.83"},{"id":"3538006","name":"Pindamonhangaba","region":"São Paulo","population":170132,"lat":"-22.92","lon":"-45.46"},{"id":"3151800","name":"Poços de Caldas","region":"Minas Gerais","population":168641,"lat":"-21.78","lon":"-46.56"},{"id":"3522307","name":"Itapetininga","region":"São Paulo","population":165526,"lat":"-23.59","lon":"-48.05"},{"id":"2103000","name":"Caxias","region":"Maranhão","population":165525,"lat":"-4.85","lon":"-43.35"},{"id":"3302700","name":"Maricá","region":"Rio de Janeiro","population":164504,"lat":"-22.91","lon":"-42.81"},{"id":"3303203","name":"Nilópolis","region":"Rio de Janeiro","population":162693,"lat":"-22.8","lon":"-43.41"},{"id":"2931350","name":"Teixeira de Freitas","region":"Bahia","population":162438,"lat":"-17.53","lon":"-39.74"},{"id":"3548807","name":"São Caetano do Sul","region":"São Paulo","population":161957,"lat":"-23.62","lon":"-46.55"},{"id":"2913606","name":"Ilhéus","region":"Bahia","population":159923,"lat":"-14.78","lon":"-39.04"},{"id":"1500107","name":"Abaetetuba","region":"Pará","population":159080,"lat":"-1.71","lon":"-48.88"},{"id":"2603454","name":"Camaragibe","region":"Pernambuco","population":158899,"lat":"-8.02","lon":"-34.98"},{"id":"4209300","name":"Lages","region":"Santa Catarina","population":157349,"lat":"-27.81","lon":"-50.32"},{"id":"2903201","name":"Barreiras","region":"Bahia","population":156975,"lat":"-12.15","lon":"-44.99"},{"id":"3516408","name":"Franco da Rocha","region":"São Paulo","population":156492,"lat":"-23.32","lon":"-46.72"},{"id":"4118204","name":"Paranaguá","region":"Paraná","population":156174,"lat":"-25.52","lon":"-48.5"},{"id":"2918001","name":"Jequié","region":"Bahia","population":156126,"lat":"-13.85","lon":"-40.08"},{"id":"3304524","name":"Rio das Ostras","region":"Rio de Janeiro","population":155193,"lat":"-22.52","lon":"-41.94"},{"id":"3148004","name":"Patos de Minas","region":"Minas Gerais","population":153585,"lat":"-18.57","lon":"-46.51"},{"id":"2207702","name":"Parnaíba","region":"Piauí","population":153482,"lat":"-2.9","lon":"-41.77"},{"id":"3530706","name":"Mogi Guaçu","region":"São Paulo","population":153033,"lat":"-22.37","lon":"-46.94"},{"id":"3152501","name":"Pouso Alegre","region":"Minas Gerais","population":152549,"lat":"-22.22","lon":"-45.93"},{"id":"2900702","name":"Alagoinhas","region":"Bahia","population":152327,"lat":"-12.13","lon":"-38.41"},{"id":"3525300","name":"Jaú","region":"São Paulo","population":151881,"lat":"-22.29","lon":"-48.55"},{"id":"3304144","name":"Queimados","region":"Rio de Janeiro","population":151335,"lat":"-22.71","lon":"-43.55"},{"id":"2925303","name":"Porto Seguro","region":"Bahia","population":150658,"lat":"-16.45","lon":"-39.06"},{"id":"3507506","name":"Botucatu","region":"São Paulo","population":148130,"lat":"-22.88","lon":"-48.44"},{"id":"4101804","name":"Araucária","region":"Paraná","population":146214,"lat":"-25.59","lon":"-49.4"},{"id":"5107909","name":"Sinop","region":"Mato Grosso","population":146005,"lat":"-11.86","lon":"-55.5"},{"id":"4202008","name":"Balneário Camboriú","region":"Santa Catarina","population":145796,"lat":"-26.99","lon":"-48.63"},{"id":"3504107","name":"Atibaia","region":"São Paulo","population":144088,"lat":"-23.11","lon":"-46.54"},{"id":"4127700","name":"Toledo","region":"Paraná","population":142645,"lat":"-24.71","lon":"-53.74"},{"id":"3547304","name":"Santana de Parnaíba","region":"São Paulo","population":142301,"lat":"-23.44","lon":"-46.91"},{"id":"4320008","name":"Sapucaia do Sul","region":"Rio Grande do Sul","population":141808,"lat":"-29.83","lon":"-51.14"},{"id":"3168606","name":"Teófilo Otoni","region":"Minas Gerais","population":140937,"lat":"-17.85","lon":"-41.5"},{"id":"2606002","name":"Garanhuns","region":"Pernambuco","population":140577,"lat":"-8.89","lon":"-36.49"},{"id":"2616407","name":"Vitória de Santo Antão","region":"Pernambuco","population":139583,"lat":"-8.11","lon":"-35.29"},{"id":"1502103","name":"Cametá","region":"Pará","population":139364,"lat":"-2.24","lon":"-49.49"},{"id":"3105608","name":"Barbacena","region":"Minas Gerais","population":138204,"lat":"-21.22","lon":"-43.77"},{"id":"4202909","name":"Brusque","region":"Santa Catarina","population":137689,"lat":"-27.09","lon":"-48.91"},{"id":"2513703","name":"Santa Rita","region":"Paraíba","population":137349,"lat":"-7.11","lon":"-34.97"},{"id":"3156700","name":"Sabará","region":"Minas Gerais","population":137125,"lat":"-19.88","lon":"-43.8"},{"id":"3170701","name":"Varginha","region":"Minas Gerais","population":136602,"lat":"-21.55","lon":"-45.43"},{"id":"4101408","name":"Apucarana","region":"Paraná","population":136234,"lat":"-23.55","lon":"-51.46"},{"id":"2930709","name":"Simões Filho","region":"Bahia","population":135783,"lat":"-12.78","lon":"-38.4"},{"id":"3503307","name":"Araras","region":"São Paulo","population":135506,"lat":"-22.35","lon":"-47.38"},{"id":"3302007","name":"Itaguaí","region":"Rio de Janeiro","population":134819,"lat":"-22.85","lon":"-43.77"},{"id":"3300209","name":"Araruama","region":"Rio de Janeiro","population":134293,"lat":"-22.87","lon":"-42.34"},{"id":"4104204","name":"Campo Largo","region":"Paraná","population":133865,"lat":"-25.45","lon":"-49.52"},{"id":"1504422","name":"Marituba","region":"Pará","population":133685,"lat":"-1.35","lon":"-48.34"},{"id":"4119152","name":"Pinhais","region":"Paraná","population":133490,"lat":"-25.44","lon":"-49.19"},{"id":"2304202","name":"Crato","region":"Ceará","population":133031,"lat":"-7.23","lon":"-39.4"},{"id":"3204906","name":"São Mateus","region":"Espírito Santo","population":132642,"lat":"-18.71","lon":"-39.85"},{"id":"3304201","name":"Resende","region":"Rio de Janeiro","population":132312,"lat":"-22.46","lon":"-44.44"},{"id":"1507300","name":"São Félix do Xingu","region":"Pará","population":132138,"lat":"-6.64","lon":"-51.99"},{"id":"3513504","name":"Cubatão","region":"São Paulo","population":131626,"lat":"-23.89","lon":"-46.42"},{"id":"4316808","name":"Santa Cruz do Sul","region":"Rio Grande do Sul","population":131365,"lat":"-29.71","lon":"-52.42"},{"id":"4303103","name":"Cachoeirinha","region":"Rio Grande do Sul","population":131240,"lat":"-29.95","lon":"-51.09"},{"id":"3556206","name":"Valinhos","region":"São Paulo","population":131210,"lat":"-22.97","lon":"-46.99"},{"id":"2306405","name":"Itapipoca","region":"Ceará","population":130539,"lat":"-3.49","lon":"-39.57"},{"id":"2307700","name":"Maranguape","region":"Ceará","population":130346,"lat":"-3.89","lon":"-38.68"},{"id":"1100122","name":"Ji-Paraná","region":"Rondônia","population":130009,"lat":"-10.88","lon":"-61.94"},{"id":"5221403","name":"Trindade","region":"Goiás","population":129823,"lat":"-16.64","lon":"-49.48"},{"id":"3171204","name":"Vespasiano","region":"Minas Gerais","population":129765,"lat":"-19.69","lon":"-43.92"},{"id":"3118304","name":"Conselheiro Lafaiete","region":"Minas Gerais","population":129606,"lat":"-20.65","lon":"-43.78"},{"id":"1501709","name":"Bragança","region":"Pará","population":128914,"lat":"-1.06","lon":"-46.77"},{"id":"3551702","name":"Sertãozinho","region":"São Paulo","population":127142,"lat":"-21.13","lon":"-47.99"},{"id":"1501303","name":"Barcarena","region":"Pará","population":127027,"lat":"-1.5","lon":"-48.62"},{"id":"4322400","name":"Uruguaiana","region":"Rio Grande do Sul","population":126866,"lat":"-29.75","lon":"-57.08"},{"id":"3202405","name":"Guarapari","region":"Espírito Santo","population":126701,"lat":"-20.65","lon":"-40.51"},{"id":"3525003","name":"Jandira","region":"São Paulo","population":126356,"lat":"-23.52","lon":"-46.9"},{"id":"3506508","name":"Birigui","region":"São Paulo","population":124883,"lat":"-21.28","lon":"-50.34"},{"id":"4101507","name":"Arapongas","region":"Paraná","population":124810,"lat":"-23.41","lon":"-51.42"},{"id":"3543303","name":"Ribeirão Pires","region":"São Paulo","population":124159,"lat":"-23.71","lon":"-46.41"},{"id":"2107506","name":"Paço do Lumiar","region":"Maranhão","population":123747,"lat":"-2.53","lon":"-44.1"},{"id":"5208004","name":"Formosa","region":"Goiás","population":123684,"lat":"-15.53","lon":"-47.33"},{"id":"3557006","name":"Votorantim","region":"São Paulo","population":123599,"lat":"-23.54","lon":"-47.43"},{"id":"3201506","name":"Colatina","region":"Espírito Santo","population":123400,"lat":"-19.53","lon":"-40.63"},{"id":"3510500","name":"Caraguatatuba","region":"São Paulo","population":123389,"lat":"-23.62","lon":"-45.41"},{"id":"5008305","name":"Três Lagoas","region":"Mato Grosso do Sul","population":123281,"lat":"-20.75","lon":"-51.67"},{"id":"2103307","name":"Codó","region":"Maranhão","population":123116,"lat":"-4.45","lon":"-43.88"},{"id":"1600600","name":"Santana","region":"Amapá","population":123096,"lat":"-0.05","lon":"-51.18"},{"id":"3556503","name":"Várzea Paulista","region":"São Paulo","population":123071,"lat":"-23.21","lon":"-46.82"},{"id":"3554003","name":"Tatuí","region":"São Paulo","population":122967,"lat":"-23.35","lon":"-47.85"},{"id":"3505500","name":"Barretos","region":"São Paulo","population":122833,"lat":"-20.55","lon":"-48.56"},{"id":"3523404","name":"Itatiba","region":"São Paulo","population":122581,"lat":"-23","lon":"-46.83"},{"id":"3518404","name":"Guaratinguetá","region":"São Paulo","population":122505,"lat":"-22.81","lon":"-45.19"},{"id":"3511102","name":"Catanduva","region":"São Paulo","population":122497,"lat":"-21.13","lon":"-48.97"},{"id":"4302105","name":"Bento Gonçalves","region":"Rio Grande do Sul","population":121803,"lat":"-29.17","lon":"-51.51"},{"id":"4301602","name":"Bagé","region":"Rio Grande do Sul","population":121335,"lat":"-31.33","lon":"-54.1"},{"id":"3131703","name":"Itabira","region":"Minas Gerais","population":120904,"lat":"-19.61","lon":"-43.22"},{"id":"4100400","name":"Almirante Tamandaré","region":"Paraná","population":120041,"lat":"-25.32","lon":"-49.31"},{"id":"3545209","name":"Salto","region":"São Paulo","population":119736,"lat":"-23.2","lon":"-47.28"},{"id":"2924009","name":"Paulo Afonso","region":"Bahia","population":118516,"lat":"-9.4","lon":"-38.22"},{"id":"5220454","name":"Senador Canedo","region":"Goiás","population":118451,"lat":"-16.7","lon":"-49.09"},{"id":"2606804","name":"Igarassu","region":"Pernambuco","population":118370,"lat":"-7.83","lon":"-34.9"},{"id":"3539806","name":"Poá","region":"São Paulo","population":118349,"lat":"-23.52","lon":"-46.34"},{"id":"3103504","name":"Araguari","region":"Minas Gerais","population":117825,"lat":"-18.64","lon":"-48.18"},{"id":"5215231","name":"Novo Gama","region":"Goiás","population":117703,"lat":"-16.05","lon":"-48.03"},{"id":"3169901","name":"Ubá","region":"Minas Gerais","population":116797,"lat":"-21.12","lon":"-42.94"},{"id":"1500602","name":"Altamira","region":"Pará","population":115969,"lat":"-3.2","lon":"-52.2"},{"id":"1303403","name":"Parintins","region":"Amazonas","population":115363,"lat":"-2.62","lon":"-56.73"},{"id":"3147907","name":"Passos","region":"Minas Gerais","population":115337,"lat":"-20.71","lon":"-46.61"},{"id":"1508100","name":"Tucuruí","region":"Pará","population":115144,"lat":"-3.76","lon":"-49.67"},{"id":"4119509","name":"Piraquara","region":"Paraná","population":114970,"lat":"-25.44","lon":"-49.06"},{"id":"1505502","name":"Paragominas","region":"Pará","population":114503,"lat":"-2.99","lon":"-47.35"},{"id":"2910727","name":"Eunápolis","region":"Bahia","population":114396,"lat":"-16.37","lon":"-39.58"},{"id":"3534708","name":"Ourinhos","region":"São Paulo","population":114352,"lat":"-22.97","lon":"-49.87"},{"id":"2613701","name":"São Lourenço da Mata","region":"Pernambuco","population":114079,"lat":"-8","lon":"-35.01"},{"id":"2100055","name":"Açailândia","region":"Maranhão","population":113121,"lat":"-4.94","lon":"-47.5"},{"id":"4128104","name":"Umuarama","region":"Paraná","population":112500,"lat":"-23.76","lon":"-53.32"},{"id":"5003207","name":"Corumbá","region":"Mato Grosso do Sul","population":112058,"lat":"-18.5","lon":"-54.75"},{"id":"3536505","name":"Paulínia","region":"São Paulo","population":112003,"lat":"-22.76","lon":"-47.15"},{"id":"5205109","name":"Catalão","region":"Goiás","population":110983,"lat":"-18.17","lon":"-47.94"},{"id":"3119401","name":"Coronel Fabriciano","region":"Minas Gerais","population":110290,"lat":"-19.51","lon":"-42.62"},{"id":"2612505","name":"Santa Cruz do Capibaribe","region":"Pernambuco","population":109897,"lat":"-7.95","lon":"-36.2"},{"id":"1100023","name":"Ariquemes","region":"Rondônia","population":109523,"lat":"-9.91","lon":"-63.04"},{"id":"3143906","name":"Muriaé","region":"Minas Gerais","population":109392,"lat":"-21.13","lon":"-42.36"},{"id":"1507953","name":"Tailândia","region":"Pará","population":108969,"lat":"-2.94","lon":"-48.95"},{"id":"2510808","name":"Patos","region":"Paraíba","population":108192,"lat":"-7.02","lon":"-37.27"},{"id":"4103701","name":"Cambé","region":"Paraná","population":107341,"lat":"-23.27","lon":"-51.27"},{"id":"3104007","name":"Araxá","region":"Minas Gerais","population":107337,"lat":"-19.59","lon":"-46.94"},{"id":"4307005","name":"Erechim","region":"Rio Grande do Sul","population":106633,"lat":"-27.63","lon":"-52.27"},{"id":"4218707","name":"Tubarão","region":"Santa Catarina","population":106422,"lat":"-28.46","lon":"-49"},{"id":"3305208","name":"São Pedro da Aldeia","region":"Rio de Janeiro","population":106049,"lat":"-22.83","lon":"-42.1"},{"id":"5211503","name":"Itumbiara","region":"Goiás","population":105809,"lat":"-18.42","lon":"-49.21"},{"id":"5107958","name":"Tangará da Serra","region":"Mato Grosso","population":105711,"lat":"-14.61","lon":"-57.48"},{"id":"3302270","name":"Japeri","region":"Rio de Janeiro","population":105548,"lat":"-22.64","lon":"-43.65"},{"id":"3145208","name":"Nova Serrana","region":"Minas Gerais","population":105520,"lat":"-19.87","lon":"-44.98"},{"id":"3134202","name":"Ituiutaba","region":"Minas Gerais","population":105255,"lat":"-18.96","lon":"-49.46"},{"id":"2803500","name":"Lagarto","region":"Sergipe","population":105221,"lat":"-10.91","lon":"-37.65"},{"id":"3504008","name":"Assis","region":"São Paulo","population":105087,"lat":"-22.66","lon":"-50.41"},{"id":"2101202","name":"Bacabal","region":"Maranhão","population":104790,"lat":"-4.22","lon":"-44.77"},{"id":"3138203","name":"Lavras","region":"Minas Gerais","population":104783,"lat":"-21.24","lon":"-45"},{"id":"3526704","name":"Leme","region":"São Paulo","population":104346,"lat":"-22.18","lon":"-47.38"},{"id":"3302205","name":"Itaperuna","region":"Rio de Janeiro","population":103800,"lat":"-21.2","lon":"-41.88"},{"id":"2412005","name":"São Gonçalo do Amarante","region":"Rio Grande do Norte","population":103672,"lat":"-5.79","lon":"-35.32"},{"id":"1501808","name":"Breves","region":"Pará","population":103497,"lat":"-1.68","lon":"-50.47"},{"id":"3522109","name":"Itanhaém","region":"São Paulo","population":103102,"lat":"-24.18","lon":"-46.78"},{"id":"3200607","name":"Aracruz","region":"Espírito Santo","population":103101,"lat":"-19.81","lon":"-40.27"},{"id":"2305506","name":"Iguatu","region":"Ceará","population":103074,"lat":"-6.35","lon":"-39.29"},{"id":"3509007","name":"Caieiras","region":"São Paulo","population":102775,"lat":"-23.36","lon":"-46.74"},{"id":"1301902","name":"Itacoatiara","region":"Amazonas","population":102701,"lat":"-3.14","lon":"-58.44"},{"id":"2928703","name":"Santo Antônio de Jesus","region":"Bahia","population":102380,"lat":"-12.96","lon":"-39.26"},{"id":"1100304","name":"Vilhena","region":"Rondônia","population":102211,"lat":"-12.74","lon":"-60.14"},{"id":"5211909","name":"Jataí","region":"Goiás","population":102065,"lat":"-17.88","lon":"-51.71"},{"id":"4107652","name":"Fazenda Rio Grande","region":"Paraná","population":102004,"lat":"-25.65","lon":"-49.3"},{"id":"3528502","name":"Mairiporã","region":"São Paulo","population":101937,"lat":"-23.31","lon":"-46.58"},{"id":"1503606","name":"Itaituba","region":"Pará","population":101395,"lat":"-4.27","lon":"-55.98"},{"id":"3300308","name":"Barra do Piraí","region":"Rio de Janeiro","population":100764,"lat":"-22.46","lon":"-43.82"},{"id":"2600054","name":"Abreu e Lima","region":"Pernambuco","population":100346,"lat":"-7.91","lon":"-34.9"},{"id":"1302504","name":"Manacapuru","region":"Amazonas","population":98502,"lat":"-3.29","lon":"-60.62"},{"id":"4309308","name":"Guaíba","region":"Rio Grande do Sul","population":98239,"lat":"-30.11","lon":"-51.32"},{"id":"4126256","name":"Sarandi","region":"Paraná","population":97803,"lat":"-23.44","lon":"-51.87"},{"id":"2607208","name":"Ipojuca","region":"Pernambuco","population":97669,"lat":"-8.39","lon":"-35.06"},{"id":"3132404","name":"Itajubá","region":"Minas Gerais","population":97334,"lat":"-22.42","lon":"-45.45"},{"id":"2932903","name":"Valença","region":"Bahia","population":97233,"lat":"-13.36","lon":"-39.07"},{"id":"2501807","name":"Bayeux","region":"Paraíba","population":97203,"lat":"-7.12","lon":"-34.93"},{"id":"3144805","name":"Nova Lima","region":"Minas Gerais","population":96157,"lat":"-19.98","lon":"-43.84"},{"id":"2802908","name":"Itabaiana","region":"Sergipe","population":96142,"lat":"-10.68","lon":"-37.42"},{"id":"2101400","name":"Balsas","region":"Maranhão","population":95929,"lat":"-7.53","lon":"-46.03"},{"id":"4104303","name":"Campo Mourão","region":"Paraná","population":95488,"lat":"-24.04","lon":"-52.38"},{"id":"3557105","name":"Votuporanga","region":"São Paulo","population":95338,"lat":"-20.42","lon":"-49.97"},{"id":"3508504","name":"Caçapava","region":"São Paulo","population":95018,"lat":"-23.1","lon":"-45.7"},{"id":"5102504","name":"Cáceres","region":"Mato Grosso","population":94861,"lat":"-16.07","lon":"-57.67"},{"id":"3147105","name":"Pará de Minas","region":"Minas Gerais","population":94808,"lat":"-19.86","lon":"-44.6"},{"id":"3522406","name":"Itapeva","region":"São Paulo","population":94804,"lat":"-23.98","lon":"-48.87"},{"id":"5006606","name":"Ponta Porã","region":"Mato Grosso do Sul","population":93937,"lat":"-22.53","lon":"-55.72"},{"id":"3147006","name":"Paracatu","region":"Minas Gerais","population":93862,"lat":"-17.22","lon":"-46.87"},{"id":"3133808","name":"Itaúna","region":"Minas Gerais","population":93847,"lat":"-20.07","lon":"-44.57"},{"id":"3530805","name":"Mogi Mirim","region":"São Paulo","population":93650,"lat":"-22.43","lon":"-46.95"},{"id":"5204508","name":"Caldas Novas","region":"Goiás","population":93196,"lat":"-17.74","lon":"-48.62"},{"id":"5107925","name":"Sorriso","region":"Mato Grosso","population":92769,"lat":"-12.54","lon":"-55.71"},{"id":"3113404","name":"Caratinga","region":"Minas Gerais","population":92603,"lat":"-19.79","lon":"-42.13"},{"id":"4108403","name":"Francisco Beltrão","region":"Paraná","population":92216,"lat":"-26.08","lon":"-53.05"},{"id":"3550605","name":"São Roque","region":"São Paulo","population":92060,"lat":"-23.52","lon":"-47.13"},{"id":"3555406","name":"Ubatuba","region":"São Paulo","population":91824,"lat":"-23.43","lon":"-45.07"},{"id":"3549102","name":"São João da Boa Vista","region":"São Paulo","population":91771,"lat":"-21.96","lon":"-46.79"},{"id":"3148103","name":"Patrocínio","region":"Minas Gerais","population":91449,"lat":"-18.94","lon":"-46.99"},{"id":"3504503","name":"Avaré","region":"São Paulo","population":91232,"lat":"-23.09","lon":"-48.92"},{"id":"3139409","name":"Manhuaçu","region":"Minas Gerais","population":91169,"lat":"-20.25","lon":"-42.03"},{"id":"3503901","name":"Arujá","region":"São Paulo","population":91157,"lat":"-23.39","lon":"-46.32"},{"id":"2806701","name":"São Cristóvão","region":"Sergipe","population":91093,"lat":"-11.01","lon":"-37.2"},{"id":"5217609","name":"Planaltina","region":"Goiás","population":90640,"lat":"-15.45","lon":"-47.61"},{"id":"3305505","name":"Saquarema","region":"Rio de Janeiro","population":90583,"lat":"-22.92","lon":"-42.5"},{"id":"3168705","name":"Timóteo","region":"Minas Gerais","population":90568,"lat":"-19.58","lon":"-42.64"},{"id":"3162500","name":"São João del-Rei","region":"Minas Gerais","population":90497,"lat":"-21.13","lon":"-44.26"},{"id":"3550704","name":"São Sebastião","region":"São Paulo","population":90328,"lat":"-23.76","lon":"-45.4"},{"id":"2919553","name":"Luís Eduardo Magalhães","region":"Bahia","population":90162,"lat":"-12.09","lon":"-45.8"},{"id":"2109908","name":"Santa Inês","region":"Maranhão","population":89489,"lat":"-3.66","lon":"-45.38"},{"id":"3527207","name":"Lorena","region":"São Paulo","population":89125,"lat":"-22.73","lon":"-45.12"},{"id":"1200203","name":"Cruzeiro do Sul","region":"Acre","population":89072,"lat":"-7.63","lon":"-72.66"},{"id":"4118402","name":"Paranavaí","region":"Paraná","population":88922,"lat":"-23.07","lon":"-52.46"},{"id":"2101608","name":"Barra do Corda","region":"Maranhão","population":88492,"lat":"-5.5","lon":"-45.24"},{"id":"2311306","name":"Quixadá","region":"Ceará","population":88321,"lat":"-4.97","lon":"-39.01"},{"id":"1709500","name":"Gurupi","region":"Tocantins","population":87545,"lat":"-11.72","lon":"-49.06"},{"id":"2906501","name":"Candeias","region":"Bahia","population":87458,"lat":"-12.66","lon":"-38.55"},{"id":"2613909","name":"Serra Talhada","region":"Pernambuco","population":86915,"lat":"-7.98","lon":"-38.29"},{"id":"1301209","name":"Coari","region":"Amazonas","population":85910,"lat":"-4.08","lon":"-63.14"},{"id":"1100049","name":"Cacoal","region":"Rondônia","population":85893,"lat":"-11.43","lon":"-61.44"},{"id":"1506138","name":"Redenção","region":"Pará","population":85563,"lat":"-8.02","lon":"-50.03"},{"id":"3509601","name":"Campo Limpo Paulista","region":"São Paulo","population":85541,"lat":"-23.2","lon":"-46.78"},{"id":"4215802","name":"São Bento do Sul","region":"Santa Catarina","population":85421,"lat":"-26.25","lon":"-49.37"},{"id":"4203204","name":"Camboriú","region":"Santa Catarina","population":85105,"lat":"-27.02","lon":"-48.65"},{"id":"4311403","name":"Lajeado","region":"Rio Grande do Sul","population":85033,"lat":"-29.46","lon":"-51.96"},{"id":"3170404","name":"Unaí","region":"Minas Gerais","population":84930,"lat":"-16.35","lon":"-46.9"},{"id":"2911709","name":"Guanambi","region":"Bahia","population":84928,"lat":"-14.22","lon":"-42.78"},{"id":"2601102","name":"Araripina","region":"Pernambuco","population":84864,"lat":"-7.57","lon":"-40.49"},{"id":"2606408","name":"Gravatá","region":"Pernambuco","population":84699,"lat":"-8.2","lon":"-35.56"},{"id":"2309706","name":"Pacatuba","region":"Ceará","population":84554,"lat":"-3.98","lon":"-38.61"},{"id":"2604007","name":"Carpina","region":"Pernambuco","population":84395,"lat":"-7.85","lon":"-35.25"},{"id":"4118501","name":"Pato Branco","region":"Paraná","population":83843,"lat":"-26.22","lon":"-52.67"},{"id":"4105508","name":"Cianorte","region":"Paraná","population":83816,"lat":"-23.66","lon":"-52.6"},{"id":"2108603","name":"Pinheiro","region":"Maranhão","population":83777,"lat":"-2.52","lon":"-45.08"},{"id":"4310207","name":"Ijuí","region":"Rio Grande do Sul","population":83764,"lat":"-28.38","lon":"-53.91"},{"id":"3529302","name":"Matão","region":"São Paulo","population":83626,"lat":"-21.6","lon":"-48.36"},{"id":"4211306","name":"Navegantes","region":"Santa Catarina","population":83626,"lat":"-26.89","lon":"-48.65"},{"id":"4307708","name":"Esteio","region":"Rio Grande do Sul","population":83279,"lat":"-29.86","lon":"-51.17"},{"id":"1504703","name":"Moju","region":"Pará","population":83182,"lat":"-1.88","lon":"-48.76"},{"id":"3305554","name":"Seropédica","region":"Rio de Janeiro","population":83092,"lat":"-22.74","lon":"-43.7"},{"id":"3513405","name":"Cruzeiro","region":"São Paulo","population":82571,"lat":"-22.57","lon":"-44.96"},{"id":"2910057","name":"Dias d'Ávila","region":"Bahia","population":82432,"lat":"-12.61","lon":"-38.29"},{"id":"3306008","name":"Três Rios","region":"Rio de Janeiro","population":82142,"lat":"-22.11","lon":"-43.2"},{"id":"4303004","name":"Cachoeira do Sul","region":"Rio Grande do Sul","population":81869,"lat":"-30.03","lon":"-52.89"},{"id":"2407104","name":"Macaíba","region":"Rio Grande do Norte","population":81821,"lat":"-5.85","lon":"-35.35"},{"id":"2311405","name":"Quixeramobim","region":"Ceará","population":81778,"lat":"-5.19","lon":"-39.29"},{"id":"2930501","name":"Serrinha","region":"Bahia","population":81286,"lat":"-11.66","lon":"-39"},{"id":"2301000","name":"Aquiraz","region":"Ceará","population":80935,"lat":"-3.9","lon":"-38.39"},{"id":"2917508","name":"Jacobina","region":"Bahia","population":80635,"lat":"-11.18","lon":"-40.51"},{"id":"3120904","name":"Curvelo","region":"Minas Gerais","population":80616,"lat":"-18.75","lon":"-44.43"},{"id":"3101607","name":"Alfenas","region":"Minas Gerais","population":80494,"lat":"-21.42","lon":"-45.94"},{"id":"3136207","name":"João Monlevade","region":"Minas Gerais","population":80416,"lat":"-19.8","lon":"-43.17"},{"id":"2103208","name":"Chapadinha","region":"Maranhão","population":80195,"lat":"-3.74","lon":"-43.36"},{"id":"3556701","name":"Vinhedo","region":"São Paulo","population":80111,"lat":"-23.03","lon":"-46.97"},{"id":"2606200","name":"Goiana","region":"Pernambuco","population":80055,"lat":"-7.56","lon":"-35"},{"id":"4319901","name":"Sapiranga","region":"Rio Grande do Sul","population":80037,"lat":"-29.63","lon":"-51"},{"id":"3169307","name":"Três Corações","region":"Minas Gerais","population":80032,"lat":"-21.69","lon":"-45.25"},{"id":"4127106","name":"Telêmaco Borba","region":"Paraná","population":79792,"lat":"-24.32","lon":"-50.61"},{"id":"3205101","name":"Viana","region":"Espírito Santo","population":79500,"lat":"-20.38","lon":"-40.49"},{"id":"3519709","name":"Ibiúna","region":"São Paulo","population":79479,"lat":"-23.65","lon":"-47.22"},{"id":"2930105","name":"Senhor do Bonfim","region":"Bahia","population":79424,"lat":"-10.46","lon":"-40.19"},{"id":"3171303","name":"Viçosa","region":"Minas Gerais","population":79388,"lat":"-20.75","lon":"-42.88"},{"id":"4203006","name":"Caçador","region":"Santa Catarina","population":79313,"lat":"-26.77","lon":"-51.01"},{"id":"2311801","name":"Russas","region":"Ceará","population":78882,"lat":"-4.94","lon":"-37.97"},{"id":"3527108","name":"Lins","region":"São Paulo","population":78503,"lat":"-21.67","lon":"-49.74"},{"id":"2208007","name":"Picos","region":"Piauí","population":78431,"lat":"-7.07","lon":"-41.46"},{"id":"3509205","name":"Cajamar","region":"São Paulo","population":77934,"lat":"-23.35","lon":"-46.87"},{"id":"3524303","name":"Jaboticabal","region":"São Paulo","population":77652,"lat":"-21.25","lon":"-48.32"},{"id":"4317509","name":"Santo Ângelo","region":"Rio Grande do Sul","population":77568,"lat":"-28.29","lon":"-54.26"},{"id":"3506102","name":"Bebedouro","region":"São Paulo","population":77555,"lat":"-20.94","lon":"-48.47"},{"id":"2302800","name":"Canindé","region":"Ceará","population":77244,"lat":"-4.35","lon":"-39.31"},{"id":"1505064","name":"Novo Repartimento","region":"Pará","population":77214,"lat":"-4.33","lon":"-49.79"},{"id":"3539301","name":"Pirassununga","region":"São Paulo","population":76877,"lat":"-21.99","lon":"-47.42"},{"id":"3306107","name":"Valença","region":"Rio de Janeiro","population":76869,"lat":"-22.24","lon":"-43.7"},{"id":"2916401","name":"Itapetinga","region":"Bahia","population":76795,"lat":"-15.24","lon":"-40.24"},{"id":"2601706","name":"Belo Jardim","region":"Pernambuco","population":76687,"lat":"-8.33","lon":"-36.42"},{"id":"2313401","name":"Tianguá","region":"Ceará","population":76537,"lat":"-3.73","lon":"-40.99"},{"id":"4317103","name":"Santana do Livramento","region":"Rio Grande do Sul","population":76321,"lat":"-30.89","lon":"-55.53"},{"id":"5219753","name":"Santo Antônio do Descoberto","region":"Goiás","population":75829,"lat":"-15.93","lon":"-48.25"},{"id":"3115300","name":"Cataguases","region":"Minas Gerais","population":75540,"lat":"-21.38","lon":"-42.69"},{"id":"2707701","name":"Rio Largo","region":"Alagoas","population":75394,"lat":"-9.47","lon":"-35.85"},{"id":"3522604","name":"Itapira","region":"São Paulo","population":75234,"lat":"-22.43","lon":"-46.82"},{"id":"4204301","name":"Concórdia","region":"Santa Catarina","population":75167,"lat":"-27.23","lon":"-52.02"},{"id":"2304103","name":"Crateús","region":"Ceará","population":75159,"lat":"-5.17","lon":"-40.67"},{"id":"2301109","name":"Aracati","region":"Ceará","population":74975,"lat":"-4.56","lon":"-37.77"},{"id":"2601201","name":"Arcoverde","region":"Pernambuco","population":74822,"lat":"-8.41","lon":"-37.05"},{"id":"3146107","name":"Ouro Preto","region":"Minas Gerais","population":74558,"lat":"-20.28","lon":"-43.5"},{"id":"1506708","name":"Santana do Araguaia","region":"Pará","population":74419,"lat":"-9.5","lon":"-50.62"},{"id":"1505304","name":"Oriximiná","region":"Pará","population":74016,"lat":"-1.76","lon":"-55.86"},{"id":"2402600","name":"Ceará-Mirim","region":"Rio Grande do Norte","population":73886,"lat":"-5.63","lon":"-35.42"},{"id":"4317202","name":"Santa Rosa","region":"Rio Grande do Sul","population":73575,"lat":"-27.87","lon":"-54.48"},{"id":"2914604","name":"Irecê","region":"Bahia","population":73524,"lat":"-11.3","lon":"-41.85"},{"id":"3512803","name":"Cosmópolis","region":"São Paulo","population":73474,"lat":"-22.64","lon":"-47.19"},{"id":"2706307","name":"Palmeira dos Índios","region":"Alagoas","population":73337,"lat":"-9.4","lon":"-36.62"},{"id":"2309607","name":"Pacajus","region":"Ceará","population":73188,"lat":"-4.17","lon":"-38.46"},{"id":"4307906","name":"Farroupilha","region":"Rio Grande do Sul","population":73061,"lat":"-29.22","lon":"-51.34"},{"id":"4300406","name":"Alegrete","region":"Rio Grande do Sul","population":73028,"lat":"-29.78","lon":"-55.79"},{"id":"2102325","name":"Buriticupu","region":"Maranhão","population":72983,"lat":"-4.34","lon":"-46.4"},{"id":"5205497","name":"Cidade Ocidental","region":"Goiás","population":72890,"lat":"-16.07","lon":"-47.92"},{"id":"2110005","name":"Santa Luzia","region":"Maranhão","population":72887,"lat":"-4.06","lon":"-45.68"},{"id":"3501905","name":"Amparo","region":"São Paulo","population":72677,"lat":"-22.7","lon":"-46.76"},{"id":"2907202","name":"Casa Nova","region":"Bahia","population":72545,"lat":"-9.16","lon":"-40.97"},{"id":"2303501","name":"Cascavel","region":"Ceará","population":72232,"lat":"-4.13","lon":"-38.23"},{"id":"3135100","name":"Janaúba","region":"Minas Gerais","population":72018,"lat":"-15.8","lon":"-43.3"},{"id":"4214805","name":"Rio do Sul","region":"Santa Catarina","population":72006,"lat":"-27.21","lon":"-49.64"},{"id":"4322608","name":"Venâncio Aires","region":"Rio Grande do Sul","population":71973,"lat":"-29.6","lon":"-52.19"},{"id":"1506500","name":"Santa Izabel do Pará","region":"Pará","population":71837,"lat":"-1.29","lon":"-48.16"},{"id":"4104907","name":"Castro","region":"Paraná","population":71809,"lat":"-24.79","lon":"-50.01"},{"id":"3124104","name":"Esmeraldas","region":"Minas Gerais","population":71551,"lat":"-19.76","lon":"-44.31"},{"id":"2906006","name":"Campo Formoso","region":"Bahia","population":71487,"lat":"-10.5","lon":"-40.32"},{"id":"3164704","name":"São Sebastião do Paraíso","region":"Minas Gerais","population":71445,"lat":"-20.91","lon":"-46.99"},{"id":"5208608","name":"Goianésia","region":"Goiás","population":71075,"lat":"-15.31","lon":"-49.11"},{"id":"4207502","name":"Indaial","region":"Santa Catarina","population":70900,"lat":"-26.89","lon":"-49.23"},{"id":"4205902","name":"Gaspar","region":"Santa Catarina","population":70793,"lat":"-26.93","lon":"-48.95"},{"id":"2104800","name":"Grajaú","region":"Maranhão","population":70065,"lat":"-5.81","lon":"-46.13"},{"id":"2609907","name":"Ouricuri","region":"Pernambuco","population":69969,"lat":"-7.88","lon":"-40.08"},{"id":"3515103","name":"Embu-Guaçu","region":"São Paulo","population":69901,"lat":"-23.83","lon":"-46.81"},{"id":"2516201","name":"Sousa","region":"Paraíba","population":69723,"lat":"-6.76","lon":"-38.23"},{"id":"2903904","name":"Bom Jesus da Lapa","region":"Bahia","population":69662,"lat":"-13.25","lon":"-43.41"},{"id":"2802106","name":"Estância","region":"Sergipe","population":69556,"lat":"-11.26","lon":"-37.43"},{"id":"4202305","name":"Biguaçu","region":"Santa Catarina","population":69486,"lat":"-27.49","lon":"-48.65"},{"id":"4303905","name":"Campo Bom","region":"Rio Grande do Sul","population":69458,"lat":"-29.67","lon":"-51.05"},{"id":"1502202","name":"Capanema","region":"Pará","population":69431,"lat":"-1.19","lon":"-47.18"},{"id":"3515509","name":"Fernandópolis","region":"São Paulo","population":69402,"lat":"-20.28","lon":"-50.24"},{"id":"2605202","name":"Escada","region":"Pernambuco","population":69292,"lat":"-8.35","lon":"-35.22"},{"id":"3537602","name":"Peruíbe","region":"São Paulo","population":69001,"lat":"-24.31","lon":"-46.99"},{"id":"3526803","name":"Lençóis Paulista","region":"São Paulo","population":68990,"lat":"-22.59","lon":"-48.79"},{"id":"3530508","name":"Mococa","region":"São Paulo","population":68980,"lat":"-21.46","lon":"-47"},{"id":"4201406","name":"Araranguá","region":"Santa Catarina","population":68867,"lat":"-28.93","lon":"-49.48"},{"id":"2503209","name":"Cabedelo","region":"Paraíba","population":68767,"lat":"-6.98","lon":"-34.83"},{"id":"2105401","name":"Itapecuru-Mirim","region":"Maranhão","population":68723,"lat":"-3.39","lon":"-44.35"},{"id":"2305233","name":"Horizonte","region":"Ceará","population":68529,"lat":"-4.09","lon":"-38.49"},{"id":"2402006","name":"Caicó","region":"Rio Grande do Norte","population":68343,"lat":"-6.45","lon":"-37.09"},{"id":"2305407","name":"Icó","region":"Ceará","population":68162,"lat":"-6.4","lon":"-38.86"},{"id":"5213103","name":"Mineiros","region":"Goiás","population":68154,"lat":"-17.56","lon":"-52.55"},{"id":"3135209","name":"Januária","region":"Minas Gerais","population":67852,"lat":"-15.48","lon":"-44.36"},{"id":"3126109","name":"Formiga","region":"Minas Gerais","population":67822,"lat":"-20.46","lon":"-45.42"},{"id":"2610905","name":"Pesqueira","region":"Pernambuco","population":67735,"lat":"-8.35","lon":"-36.69"},{"id":"5105259","name":"Lucas do Rio Verde","region":"Mato Grosso","population":67620,"lat":"-13.05","lon":"-55.91"},{"id":"4122404","name":"Rolândia","region":"Paraná","population":67383,"lat":"-23.3","lon":"-51.36"},{"id":"4208302","name":"Itapema","region":"Santa Catarina","population":67338,"lat":"-27.09","lon":"-48.61"},{"id":"2904605","name":"Brumado","region":"Bahia","population":67335,"lat":"-14.2","lon":"-41.66"},{"id":"1501782","name":"Breu Branco","region":"Pará","population":67332,"lat":"-4","lon":"-49.46"},{"id":"1304062","name":"Tabatinga","region":"Amazonas","population":67182,"lat":"-4.25","lon":"-69.93"},{"id":"2908408","name":"Conceição do Coité","region":"Bahia","population":67013,"lat":"-11.56","lon":"-39.28"},{"id":"4322509","name":"Vacaria","region":"Rio Grande do Sul","population":66575,"lat":"-28.51","lon":"-50.93"},{"id":"4303509","name":"Camaquã","region":"Rio Grande do Sul","population":66478,"lat":"-30.85","lon":"-51.81"},{"id":"2709301","name":"União dos Palmares","region":"Alagoas","population":65790,"lat":"-9.16","lon":"-36.03"},{"id":"4312401","name":"Montenegro","region":"Rio Grande do Sul","population":65721,"lat":"-29.68","lon":"-51.46"},{"id":"3137601","name":"Lagoa Santa","region":"Minas Gerais","population":65657,"lat":"-19.62","lon":"-43.88"},{"id":"2614501","name":"Surubim","region":"Pernambuco","population":65647,"lat":"-7.83","lon":"-35.75"},{"id":"1503457","name":"Ipixuna do Pará","region":"Pará","population":65625,"lat":"-2.55","lon":"-47.49"},{"id":"3555000","name":"Tupã","region":"São Paulo","population":65570,"lat":"-21.93","lon":"-50.51"},{"id":"2103604","name":"Coroatá","region":"Maranhão","population":65544,"lat":"-4.13","lon":"-44.12"},{"id":"1302900","name":"Maués","region":"Amazonas","population":65040,"lat":"-3.38","lon":"-57.71"},{"id":"3506359","name":"Bertioga","region":"São Paulo","population":64723,"lat":"-23.85","lon":"-46.13"},{"id":"3149309","name":"Pedro Leopoldo","region":"Minas Gerais","population":64712,"lat":"-19.61","lon":"-44.04"},{"id":"2914703","name":"Itaberaba","region":"Bahia","population":64646,"lat":"-12.52","lon":"-40.3"},{"id":"2915601","name":"Itamaraju","region":"Bahia","population":64455,"lat":"-17.03","lon":"-39.53"},{"id":"1508001","name":"Tomé-Açu","region":"Pará","population":64030,"lat":"-2.41","lon":"-48.15"},{"id":"2302602","name":"Camocim","region":"Ceará","population":63907,"lat":"-2.9","lon":"-40.84"},{"id":"2706703","name":"Penedo","region":"Alagoas","population":63846,"lat":"-10.28","lon":"-36.58"},{"id":"2208403","name":"Piripiri","region":"Piauí","population":63787,"lat":"-4.27","lon":"-41.77"},{"id":"1501501","name":"Benevides","region":"Pará","population":63768,"lat":"-1.36","lon":"-48.24"},{"id":"3537305","name":"Penápolis","region":"São Paulo","population":63757,"lat":"-21.42","lon":"-50.07"},{"id":"2909802","name":"Cruz das Almas","region":"Bahia","population":63591,"lat":"-12.67","lon":"-39.1"},{"id":"2610004","name":"Palmares","region":"Pernambuco","population":63500,"lat":"-8.68","lon":"-35.59"},{"id":"2609402","name":"Moreno","region":"Pernambuco","population":63294,"lat":"-8.11","lon":"-35.09"},{"id":"2101707","name":"Barreirinhas","region":"Maranhão","population":63217,"lat":"-2.74","lon":"-42.82"},{"id":"2300200","name":"Acaraú","region":"Ceará","population":63104,"lat":"-2.88","lon":"-40.11"},{"id":"5107040","name":"Primavera do Leste","region":"Mato Grosso","population":63092,"lat":"-15.52","lon":"-54.34"},{"id":"1503309","name":"Igarapé-Miri","region":"Pará","population":63036,"lat":"-1.97","lon":"-48.95"},{"id":"3505906","name":"Batatais","region":"São Paulo","population":62980,"lat":"-20.89","lon":"-47.58"},{"id":"1505809","name":"Portel","region":"Pará","population":62945,"lat":"-1.93","lon":"-50.82"},{"id":"3524006","name":"Itupeva","region":"São Paulo","population":62813,"lat":"-23.15","lon":"-47.05"},{"id":"2503704","name":"Cajazeiras","region":"Paraíba","population":62289,"lat":"-6.88","lon":"-38.56"},{"id":"4304705","name":"Carazinho","region":"Rio Grande do Sul","population":62265,"lat":"-28.28","lon":"-52.78"},{"id":"3507001","name":"Boituva","region":"São Paulo","population":62170,"lat":"-23.28","lon":"-47.67"},{"id":"4318309","name":"São Gabriel","region":"Rio Grande do Sul","population":62147,"lat":"-30.33","lon":"-54.31"},{"id":"2708600","name":"São Miguel dos Campos","region":"Alagoas","population":61797,"lat":"-9.78","lon":"-36.09"},{"id":"1508308","name":"Viseu","region":"Pará","population":61751,"lat":"-1.19","lon":"-46.13"},{"id":"2308708","name":"Morada Nova","region":"Ceará","population":61738,"lat":"-5.1","lon":"-38.37"},{"id":"2314102","name":"Viçosa do Ceará","region":"Ceará","population":61410,"lat":"-3.56","lon":"-41.09"},{"id":"3301850","name":"Guapimirim","region":"Rio de Janeiro","population":61388,"lat":"-22.53","lon":"-42.98"},{"id":"3140001","name":"Mariana","region":"Minas Gerais","population":61288,"lat":"-20.37","lon":"-43.41"},{"id":"2612208","name":"Salgueiro","region":"Pernambuco","population":61249,"lat":"-8.06","lon":"-39.11"},{"id":"2301901","name":"Barbalha","region":"Ceará","population":61228,"lat":"-7.3","lon":"-39.3"},{"id":"5101803","name":"Barra do Garças","region":"Mato Grosso","population":61135,"lat":"-15.89","lon":"-52.25"},{"id":"4110706","name":"Irati","region":"Paraná","population":61088,"lat":"-25.46","lon":"-50.65"},{"id":"3533403","name":"Nova Odessa","region":"São Paulo","population":60956,"lat":"-22.77","lon":"-47.29"},{"id":"2601904","name":"Bezerros","region":"Pernambuco","population":60880,"lat":"-8.23","lon":"-35.79"},{"id":"2910701","name":"Euclides da Cunha","region":"Bahia","population":60858,"lat":"-10.5","lon":"-39.01"},{"id":"1508126","name":"Ulianópolis","region":"Pará","population":60761,"lat":"-3.75","lon":"-47.5"},{"id":"3531803","name":"Monte Mor","region":"São Paulo","population":60754,"lat":"-22.94","lon":"-47.31"},{"id":"3519600","name":"Ibitinga","region":"São Paulo","population":60600,"lat":"-21.75","lon":"-48.82"},{"id":"3304300","name":"Rio Bonito","region":"Rio de Janeiro","population":60573,"lat":"-22.7","lon":"-42.62"},{"id":"1502939","name":"Dom Eliseu","region":"Pará","population":60469,"lat":"-4.28","lon":"-47.5"},{"id":"3530300","name":"Mirassol","region":"São Paulo","population":60303,"lat":"-20.81","lon":"-49.52"},{"id":"5206206","name":"Cristalina","region":"Goiás","population":60210,"lat":"-16.76","lon":"-47.61"},{"id":"2928604","name":"Santo Amaro","region":"Bahia","population":60131,"lat":"-12.54","lon":"-38.71"},{"id":"2613008","name":"São Bento do Una","region":"Pernambuco","population":60042,"lat":"-8.52","lon":"-36.44"},{"id":"2203909","name":"Floriano","region":"Piauí","population":60025,"lat":"-6.76","lon":"-43.02"},{"id":"4318002","name":"São Borja","region":"Rio Grande do Sul","population":60019,"lat":"-28.66","lon":"-56"},{"id":"3127107","name":"Frutal","region":"Minas Gerais","population":60012,"lat":"-20.02","lon":"-48.94"},{"id":"4306106","name":"Cruz Alta","region":"Rio Grande do Sul","population":59922,"lat":"-28.63","lon":"-53.6"},{"id":"2307601","name":"Limoeiro do Norte","region":"Ceará","population":59890,"lat":"-5.14","lon":"-38.09"},{"id":"3152105","name":"Ponte Nova","region":"Minas Gerais","population":59875,"lat":"-20.41","lon":"-42.9"},{"id":"1503804","name":"Jacundá","region":"Pará","population":59842,"lat":"-4.45","lon":"-49.11"},{"id":"1507607","name":"São Miguel do Guamá","region":"Pará","population":59632,"lat":"-1.62","lon":"-47.48"},{"id":"1304203","name":"Tefé","region":"Amazonas","population":59547,"lat":"-3.35","lon":"-64.71"},{"id":"2914000","name":"Ipirá","region":"Bahia","population":59435,"lat":"-12.15","lon":"-39.73"},{"id":"2112506","name":"Tutóia","region":"Maranhão","population":59398,"lat":"-2.76","lon":"-42.27"},{"id":"3300803","name":"Cachoeiras de Macacu","region":"Rio de Janeiro","population":59303,"lat":"-22.46","lon":"-42.65"},{"id":"5007901","name":"Sidrolândia","region":"Mato Grosso do Sul","population":59245,"lat":"-20.93","lon":"-54.96"},{"id":"2506301","name":"Guarabira","region":"Paraíba","population":59115,"lat":"-6.85","lon":"-35.49"},{"id":"2313302","name":"Tauá","region":"Ceará","population":59062,"lat":"-6","lon":"-40.29"},{"id":"1503903","name":"Juruti","region":"Pará","population":58960,"lat":"-2.15","lon":"-56.09"},{"id":"2602803","name":"Buíque","region":"Pernambuco","population":58919,"lat":"-8.62","lon":"-37.15"},{"id":"4314050","name":"Parobé","region":"Rio Grande do Sul","population":58858,"lat":"-29.62","lon":"-50.83"},{"id":"3524709","name":"Jaguariúna","region":"São Paulo","population":58722,"lat":"-22.7","lon":"-46.98"},{"id":"2400208","name":"Assu","region":"Rio Grande do Norte","population":58384,"lat":"-5.57","lon":"-36.9"},{"id":"1504802","name":"Monte Alegre","region":"Pará","population":58162,"lat":"-2","lon":"-54.06"},{"id":"3546801","name":"Santa Isabel","region":"São Paulo","population":57966,"lat":"-23.31","lon":"-46.22"},{"id":"4128203","name":"União da Vitória","region":"Paraná","population":57913,"lat":"-26.22","lon":"-51.08"},{"id":"3531100","name":"Mongaguá","region":"São Paulo","population":57648,"lat":"-24.08","lon":"-46.62"},{"id":"4321204","name":"Taquara","region":"Rio Grande do Sul","population":57584,"lat":"-29.65","lon":"-50.78"},{"id":"2701407","name":"Campo Alegre","region":"Alagoas","population":57537,"lat":"-9.78","lon":"-36.35"},{"id":"3553708","name":"Taquaritinga","region":"São Paulo","population":57364,"lat":"-21.4","lon":"-48.5"},{"id":"2702306","name":"Coruripe","region":"Alagoas","population":57294,"lat":"-10.12","lon":"-36.17"},{"id":"4207007","name":"Içara","region":"Santa Catarina","population":57247,"lat":"-28.71","lon":"-49.29"},{"id":"3502101","name":"Andradina","region":"São Paulo","population":57202,"lat":"-20.89","lon":"-51.37"},{"id":"2112704","name":"Vargem Grande","region":"Maranhão","population":57168,"lat":"-3.54","lon":"-43.91"},{"id":"1500404","name":"Alenquer","region":"Pará","population":57092,"lat":"-1.94","lon":"-54.73"},{"id":"3169406","name":"Três Pontas","region":"Minas Gerais","population":56940,"lat":"-21.36","lon":"-45.51"},{"id":"2610608","name":"Paudalho","region":"Pernambuco","population":56933,"lat":"-7.89","lon":"-35.18"},{"id":"3151206","name":"Pirapora","region":"Minas Gerais","population":56640,"lat":"-17.34","lon":"-44.94"},{"id":"1302702","name":"Manicoré","region":"Amazonas","population":56583,"lat":"-5.8","lon":"-61.29"},{"id":"4210100","name":"Mafra","region":"Santa Catarina","population":56561,"lat":"-26.11","lon":"-49.8"},{"id":"3540705","name":"Porto Ferreira","region":"São Paulo","population":56504,"lat":"-21.85","lon":"-47.47"},{"id":"3161106","name":"São Francisco","region":"Minas Gerais","population":56477,"lat":"-15.94","lon":"-44.86"},{"id":"3542602","name":"Registro","region":"São Paulo","population":56393,"lat":"-24.48","lon":"-47.84"},{"id":"3510401","name":"Capivari","region":"São Paulo","population":56379,"lat":"-22.99","lon":"-47.5"},{"id":"2313500","name":"Trairi","region":"Ceará","population":56291,"lat":"-3.27","lon":"-39.26"},{"id":"4304507","name":"Canguçu","region":"Rio Grande do Sul","population":56211,"lat":"-31.39","lon":"-52.67"},{"id":"2608909","name":"Limoeiro","region":"Pernambuco","population":56198,"lat":"-7.87","lon":"-35.45"},{"id":"1301704","name":"Humaitá","region":"Amazonas","population":56144,"lat":"-7.5","lon":"-63.02"},{"id":"5005707","name":"Naviraí","region":"Mato Grosso do Sul","population":55689,"lat":"-23.06","lon":"-54.19"},{"id":"1500206","name":"Acará","region":"Pará","population":55669,"lat":"-1.96","lon":"-48.19"},{"id":"3537800","name":"Piedade","region":"São Paulo","population":55542,"lat":"-23.71","lon":"-47.42"},{"id":"1100288","name":"Rolim de Moura","region":"Rondônia","population":55407,"lat":"-11.73","lon":"-61.77"},{"id":"3503802","name":"Artur Nogueira","region":"São Paulo","population":55340,"lat":"-22.57","lon":"-47.17"},{"id":"3118007","name":"Congonhas","region":"Minas Gerais","population":55309,"lat":"-20.5","lon":"-43.85"},{"id":"5006200","name":"Nova Andradina","region":"Mato Grosso do Sul","population":55224,"lat":"-22.23","lon":"-53.34"},{"id":"4109807","name":"Ibiporã","region":"Paraná","population":55131,"lat":"-23.26","lon":"-51.04"},{"id":"3533908","name":"Olímpia","region":"São Paulo","population":55130,"lat":"-20.73","lon":"-48.91"},{"id":"3549706","name":"São José do Rio Pardo","region":"São Paulo","population":55124,"lat":"-21.59","lon":"-46.88"},{"id":"2907509","name":"Catu","region":"Bahia","population":54970,"lat":"-12.35","lon":"-38.37"},{"id":"2304707","name":"Granja","region":"Ceará","population":54962,"lat":"-3.11","lon":"-40.82"},{"id":"2917607","name":"Jaguaquara","region":"Bahia","population":54673,"lat":"-13.53","lon":"-39.97"},{"id":"2902104","name":"Araci","region":"Bahia","population":54648,"lat":"-11.33","lon":"-38.96"},{"id":"2302404","name":"Boa Viagem","region":"Ceará","population":54577,"lat":"-5.12","lon":"-39.73"},{"id":"2300309","name":"Acopiara","region":"Ceará","population":54481,"lat":"-6.09","lon":"-39.45"},{"id":"4203808","name":"Canoinhas","region":"Santa Catarina","population":54480,"lat":"-26.17","lon":"-50.38"},{"id":"1502301","name":"Capitão Poço","region":"Pará","population":54425,"lat":"-1.74","lon":"-47.06"},{"id":"2304285","name":"Eusébio","region":"Ceará","population":54337,"lat":"-3.89","lon":"-38.45"},{"id":"3111200","name":"Campo Belo","region":"Minas Gerais","population":54186,"lat":"-20.89","lon":"-45.27"},{"id":"1508209","name":"Vigia","region":"Pará","population":54172,"lat":"-0.85","lon":"-48.14"},{"id":"4304630","name":"Capão da Canoa","region":"Rio Grande do Sul","population":54051,"lat":"-29.76","lon":"-50.02"},{"id":"2926608","name":"Ribeira do Pombal","region":"Bahia","population":53956,"lat":"-10.83","lon":"-38.53"},{"id":"2302206","name":"Beberibe","region":"Ceará","population":53949,"lat":"-4.17","lon":"-38.13"},{"id":"2902708","name":"Barra","region":"Bahia","population":53910,"lat":"-11.08","lon":"-43.14"},{"id":"4216206","name":"São Francisco do Sul","region":"Santa Catarina","population":53746,"lat":"-26.24","lon":"-48.63"},{"id":"4219309","name":"Videira","region":"Santa Catarina","population":53610,"lat":"-27","lon":"-51.15"},{"id":"4114609","name":"Marechal Cândido Rondon","region":"Paraná","population":53495,"lat":"-24.55","lon":"-54.05"},{"id":"3556453","name":"Vargem Grande Paulista","region":"São Paulo","population":53468,"lat":"-23.6","lon":"-47.02"},{"id":"3540606","name":"Porto Feliz","region":"São Paulo","population":53402,"lat":"-23.21","lon":"-47.52"},{"id":"1503705","name":"Itupiranga","region":"Pará","population":53355,"lat":"-5.13","lon":"-49.32"},{"id":"1718204","name":"Porto Nacional","region":"Tocantins","population":53316,"lat":"-10.7","lon":"-48.41"},{"id":"2928802","name":"Santo Estêvão","region":"Bahia","population":53269,"lat":"-12.43","lon":"-39.25"},{"id":"5210000","name":"Inhumas","region":"Goiás","population":53259,"lat":"-16.35","lon":"-49.49"},{"id":"2306306","name":"Itapajé","region":"Ceará","population":53067,"lat":"-3.68","lon":"-39.58"},{"id":"2515302","name":"Sapé","region":"Paraíba","population":52804,"lat":"-7.09","lon":"-35.23"},{"id":"1506187","name":"Rondon do Pará","region":"Pará","population":52803,"lat":"-4.77","lon":"-48.06"},{"id":"2615300","name":"Timbaúba","region":"Pernambuco","population":52802,"lat":"-7.5","lon":"-35.31"},{"id":"3137205","name":"Lagoa da Prata","region":"Minas Gerais","population":52711,"lat":"-20.02","lon":"-45.54"},{"id":"3303609","name":"Paracambi","region":"Rio de Janeiro","population":52683,"lat":"-22.61","lon":"-43.7"},{"id":"2112803","name":"Viana","region":"Maranhão","population":52649,"lat":"-3.22","lon":"-45"},{"id":"3138401","name":"Leopoldina","region":"Minas Gerais","population":52640,"lat":"-21.53","lon":"-42.64"},{"id":"4321600","name":"Tramandaí","region":"Rio Grande do Sul","population":52632,"lat":"-29.98","lon":"-50.13"},{"id":"2807402","name":"Tobias Barreto","region":"Sergipe","population":52530,"lat":"-11.18","lon":"-37.99"},{"id":"4120606","name":"Prudentópolis","region":"Paraná","population":52513,"lat":"-25.21","lon":"-50.97"},{"id":"3131901","name":"Itabirito","region":"Minas Gerais","population":52446,"lat":"-20.25","lon":"-43.8"},{"id":"3509700","name":"Campos do Jordão","region":"São Paulo","population":52405,"lat":"-22.73","lon":"-45.59"},{"id":"2704708","name":"Marechal Deodoro","region":"Alagoas","population":52380,"lat":"-9.71","lon":"-35.89"},{"id":"3549409","name":"São Joaquim da Barra","region":"São Paulo","population":52319,"lat":"-20.58","lon":"-47.85"},{"id":"1505106","name":"Óbidos","region":"Pará","population":52306,"lat":"-1.91","lon":"-55.51"},{"id":"2702405","name":"Delmiro Gouveia","region":"Alagoas","population":52262,"lat":"-9.38","lon":"-37.99"},{"id":"3128709","name":"Guaxupé","region":"Minas Gerais","population":52078,"lat":"-21.3","lon":"-46.71"},{"id":"5100250","name":"Alta Floresta","region":"Mato Grosso","population":51959,"lat":"-9.87","lon":"-56.08"},{"id":"2114007","name":"Zé Doca","region":"Maranhão","population":51956,"lat":"-3.24","lon":"-45.82"},{"id":"1716109","name":"Paraíso do Tocantins","region":"Tocantins","population":51891,"lat":"-10.17","lon":"-48.86"},{"id":"4117602","name":"Palmas","region":"Paraná","population":51755,"lat":"-26.48","lon":"-51.99"},{"id":"4219507","name":"Xanxerê","region":"Santa Catarina","population":51642,"lat":"-26.87","lon":"-52.4"},{"id":"1100114","name":"Jaru","region":"Rondônia","population":51620,"lat":"-10.43","lon":"-62.46"},{"id":"1506195","name":"Rurópolis","region":"Pará","population":51500,"lat":"-4.09","lon":"-54.9"},{"id":"3544103","name":"Rio Grande da Serra","region":"São Paulo","population":51436,"lat":"-23.74","lon":"-46.39"},{"id":"1600279","name":"Laranjal do Jari","region":"Amapá","population":51362,"lat":"-0.84","lon":"-52.51"},{"id":"5211800","name":"Jaraguá","region":"Goiás","population":51338,"lat":"-15.75","lon":"-49.33"},{"id":"2602605","name":"Brejo da Madre de Deus","region":"Pernambuco","population":51225,"lat":"-8.14","lon":"-36.37"},{"id":"2905206","name":"Caetité","region":"Bahia","population":51081,"lat":"-14.06","lon":"-42.47"},{"id":"3107406","name":"Bom Despacho","region":"Minas Gerais","population":51028,"lat":"-19.73","lon":"-45.25"},{"id":"3540200","name":"Pontal","region":"São Paulo","population":50852,"lat":"-21.02","lon":"-48.03"},{"id":"2931905","name":"Tucano","region":"Bahia","population":50798,"lat":"-10.96","lon":"-38.78"},{"id":"3531308","name":"Monte Alto","region":"São Paulo","population":50772,"lat":"-21.26","lon":"-48.49"},{"id":"5218508","name":"Quirinópolis","region":"Goiás","population":50701,"lat":"-18.44","lon":"-50.45"},{"id":"4307609","name":"Estância Velha","region":"Rio Grande do Sul","population":50672,"lat":"-29.64","lon":"-51.17"},{"id":"3523206","name":"Itararé","region":"São Paulo","population":50642,"lat":"-24.11","lon":"-49.34"},{"id":"2105708","name":"Lago da Pedra","region":"Maranhão","population":50616,"lat":"-4.57","lon":"-45.13"},{"id":"3203908","name":"Nova Venécia","region":"Espírito Santo","population":50434,"lat":"-18.71","lon":"-40.4"},{"id":"3508405","name":"Cabreúva","region":"São Paulo","population":50429,"lat":"-23.3","lon":"-47.13"},{"id":"3107307","name":"Bocaiuva","region":"Minas Gerais","population":50256,"lat":"-17.1","lon":"-43.81"},{"id":"2919801","name":"Macaúbas","region":"Bahia","population":50161,"lat":"-13.01","lon":"-42.69"},{"id":"3527306","name":"Louveira","region":"São Paulo","population":49993,"lat":"-23.08","lon":"-46.95"},{"id":"2302503","name":"Brejo Santo","region":"Ceará","population":49842,"lat":"-7.49","lon":"-38.98"},{"id":"3511508","name":"Cerquilho","region":"São Paulo","population":49802,"lat":"-23.16","lon":"-47.74"},{"id":"2103406","name":"Coelho Neto","region":"Maranhão","population":49621,"lat":"-4.25","lon":"-43.01"},{"id":"4317400","name":"Santiago","region":"Rio Grande do Sul","population":49360,"lat":"-29.19","lon":"-54.86"},{"id":"2921500","name":"Monte Santo","region":"Bahia","population":49278,"lat":"-10.43","lon":"-39.33"},{"id":"3524808","name":"Jales","region":"São Paulo","population":49201,"lat":"-20.26","lon":"-50.54"},{"id":"1301852","name":"Iranduba","region":"Amazonas","population":49011,"lat":"-3.28","lon":"-60.18"},{"id":"2312403","name":"São Gonçalo do Amarante","region":"Ceará","population":48869,"lat":"-3.6","lon":"-38.96"},{"id":"2602100","name":"Bom Conselho","region":"Pernambuco","population":48767,"lat":"-9.17","lon":"-36.68"},{"id":"3537107","name":"Pedreira","region":"São Paulo","population":48463,"lat":"-22.74","lon":"-46.9"},{"id":"1501204","name":"Baião","region":"Pará","population":48459,"lat":"-2.79","lon":"-49.67"},{"id":"1505486","name":"Pacajá","region":"Pará","population":48414,"lat":"-3.83","lon":"-50.63"},{"id":"4113205","name":"Lapa","region":"Paraná","population":48410,"lat":"-25.77","lon":"-49.71"},{"id":"2308104","name":"Mauriti","region":"Ceará","population":48168,"lat":"-7.38","lon":"-38.77"},{"id":"2312304","name":"São Benedito","region":"Ceará","population":48131,"lat":"-4.04","lon":"-40.86"},{"id":"2109106","name":"Presidente Dutra","region":"Maranhão","population":48036,"lat":"-5.28","lon":"-44.49"},{"id":"5001102","name":"Aquidauana","region":"Mato Grosso do Sul","population":48029,"lat":"-20.47","lon":"-55.78"},{"id":"5005400","name":"Maracaju","region":"Mato Grosso do Sul","population":48022,"lat":"-21.61","lon":"-55.16"},{"id":"1502707","name":"Conceição do Araguaia","region":"Pará","population":47991,"lat":"-8.25","lon":"-49.26"},{"id":"3546405","name":"Santa Cruz do Rio Pardo","region":"São Paulo","population":47943,"lat":"-22.89","lon":"-49.63"},{"id":"3143104","name":"Monte Carmelo","region":"Minas Gerais","population":47931,"lat":"-18.72","lon":"-47.49"},{"id":"4106407","name":"Cornélio Procópio","region":"Paraná","population":47842,"lat":"-23.18","lon":"-50.64"},{"id":"3121605","name":"Diamantina","region":"Minas Gerais","population":47825,"lat":"-18.24","lon":"-43.59"},{"id":"2708006","name":"Santana do Ipanema","region":"Alagoas","population":47819,"lat":"-9.37","lon":"-37.24"},{"id":"3136306","name":"João Pinheiro","region":"Minas Gerais","population":47726,"lat":"-17.74","lon":"-46.17"},{"id":"3554805","name":"Tremembé","region":"São Paulo","population":47714,"lat":"-22.95","lon":"-45.54"},{"id":"2611804","name":"Ribeirão","region":"Pernambuco","population":47616,"lat":"-8.51","lon":"-35.37"},{"id":"3528403","name":"Mairinque","region":"São Paulo","population":47441,"lat":"-23.54","lon":"-47.18"},{"id":"2700409","name":"Atalaia","region":"Alagoas","population":47365,"lat":"-9.5","lon":"-36.02"},{"id":"2201200","name":"Barras","region":"Piauí","population":47185,"lat":"-4.24","lon":"-42.29"},{"id":"2921005","name":"Mata de São João","region":"Bahia","population":47126,"lat":"-12.52","lon":"-38.29"},{"id":"3510203","name":"Capão Bonito","region":"São Paulo","population":47118,"lat":"-24","lon":"-48.34"},{"id":"3536703","name":"Pederneiras","region":"São Paulo","population":47111,"lat":"-22.35","lon":"-48.77"},{"id":"3514403","name":"Dracena","region":"São Paulo","population":47043,"lat":"-21.48","lon":"-51.53"},{"id":"2202208","name":"Campo Maior","region":"Piauí","population":46893,"lat":"-4.82","lon":"-42.16"},{"id":"1302405","name":"Lábrea","region":"Amazonas","population":46882,"lat":"-7.25","lon":"-64.79"},{"id":"2925105","name":"Poções","region":"Bahia","population":46879,"lat":"-14.52","lon":"-40.36"},{"id":"5106224","name":"Nova Mutum","region":"Mato Grosso","population":46813,"lat":"-13.83","lon":"-56.08"},{"id":"2100907","name":"Araioses","region":"Maranhão","population":46771,"lat":"-2.89","lon":"-41.9"},{"id":"5214606","name":"Niquelândia","region":"Goiás","population":46730,"lat":"-14.47","lon":"-48.45"},{"id":"4125605","name":"São Mateus do Sul","region":"Paraná","population":46705,"lat":"-25.87","lon":"-50.38"},{"id":"4115804","name":"Medianeira","region":"Paraná","population":46574,"lat":"-25.29","lon":"-54.09"},{"id":"1100106","name":"Guajará-Mirim","region":"Rondônia","population":46556,"lat":"-10.78","lon":"-65.33"},{"id":"5213806","name":"Morrinhos","region":"Goiás","population":46548,"lat":"-17.73","lon":"-49.1"},{"id":"2933604","name":"Xique-Xique","region":"Bahia","population":46523,"lat":"-10.82","lon":"-42.73"},{"id":"1200500","name":"Sena Madureira","region":"Acre","population":46511,"lat":"-9.06","lon":"-68.65"},{"id":"1500909","name":"Augusto Corrêa","region":"Pará","population":46471,"lat":"-1.02","lon":"-46.64"},{"id":"3160702","name":"Santos Dumont","region":"Minas Gerais","population":46421,"lat":"-21.45","lon":"-43.55"},{"id":"4313508","name":"Osório","region":"Rio Grande do Sul","population":46414,"lat":"-29.88","lon":"-50.27"},{"id":"2614204","name":"Sirinhaém","region":"Pernambuco","population":46361,"lat":"-8.59","lon":"-35.11"},{"id":"1303809","name":"São Gabriel da Cachoeira","region":"Amazonas","population":46303,"lat":"-0.12","lon":"-67.08"},{"id":"4124103","name":"Santo Antônio da Platina","region":"Paraná","population":46251,"lat":"-23.29","lon":"-50.07"},{"id":"3163706","name":"São Lourenço","region":"Minas Gerais","population":46202,"lat":"-22.11","lon":"-45.05"},{"id":"2615409","name":"Toritama","region":"Pernambuco","population":46164,"lat":"-7.99","lon":"-36.05"},{"id":"4209409","name":"Laguna","region":"Santa Catarina","population":46122,"lat":"-28.48","lon":"-48.78"},{"id":"2919504","name":"Livramento de Nossa Senhora","region":"Bahia","population":46062,"lat":"-13.64","lon":"-41.84"},{"id":"3535507","name":"Paraguaçu Paulista","region":"São Paulo","population":45945,"lat":"-22.41","lon":"-50.57"},{"id":"2913903","name":"Ipiaú","region":"Bahia","population":45922,"lat":"-14.13","lon":"-39.73"},{"id":"3545308","name":"Salto de Pirapora","region":"São Paulo","population":45860,"lat":"-23.64","lon":"-47.57"},{"id":"4206504","name":"Guaramirim","region":"Santa Catarina","population":45797,"lat":"-26.47","lon":"-49"},{"id":"5106752","name":"Pontes e Lacerda","region":"Mato Grosso","population":45774,"lat":"-15.22","lon":"-59.33"},{"id":"5102678","name":"Campo Verde","region":"Mato Grosso","population":45740,"lat":"-15.54","lon":"-55.16"},{"id":"3551504","name":"Serrana","region":"São Paulo","population":45644,"lat":"-21.21","lon":"-47.59"},{"id":"5218003","name":"Porangatu","region":"Goiás","population":45633,"lat":"-13.44","lon":"-49.14"},{"id":"2110500","name":"São Bento","region":"Maranhão","population":45604,"lat":"-2.69","lon":"-44.82"},{"id":"4304408","name":"Canela","region":"Rio Grande do Sul","population":45488,"lat":"-29.36","lon":"-50.81"},{"id":"1508159","name":"Uruará","region":"Pará","population":45435,"lat":"-3.71","lon":"-53.73"},{"id":"5208806","name":"Goianira","region":"Goiás","population":45296,"lat":"-16.49","lon":"-49.42"},{"id":"4207304","name":"Imbituba","region":"Santa Catarina","population":45286,"lat":"-28.23","lon":"-48.66"},{"id":"3302601","name":"Mangaratiba","region":"Rio de Janeiro","population":45220,"lat":"-22.95","lon":"-44.04"},{"id":"2508901","name":"Mamanguape","region":"Paraíba","population":45136,"lat":"-6.83","lon":"-35.12"},{"id":"1508407","name":"Xinguara","region":"Pará","population":45086,"lat":"-7.09","lon":"-49.94"},{"id":"3110004","name":"Caeté","region":"Minas Gerais","population":45047,"lat":"-19.87","lon":"-43.66"},{"id":"3301306","name":"Casimiro de Abreu","region":"Rio de Janeiro","population":45041,"lat":"-22.48","lon":"-42.2"},{"id":"3200904","name":"Barra de São Francisco","region":"Espírito Santo","population":44979,"lat":"-18.75","lon":"-40.89"},{"id":"4218202","name":"Timbó","region":"Santa Catarina","population":44977,"lat":"-26.82","lon":"-49.27"},{"id":"3525102","name":"Jardinópolis","region":"São Paulo","population":44970,"lat":"-21.01","lon":"-47.76"},{"id":"2403103","name":"Currais Novos","region":"Rio Grande do Norte","population":44905,"lat":"-6.26","lon":"-36.51"},{"id":"4311809","name":"Marau","region":"Rio Grande do Sul","population":44858,"lat":"-28.44","lon":"-52.2"},{"id":"2920601","name":"Maragogipe","region":"Bahia","population":44793,"lat":"-12.77","lon":"-38.91"},{"id":"2211100","name":"União","region":"Piauí","population":44569,"lat":"-4.58","lon":"-42.86"},{"id":"3303708","name":"Paraíba do Sul","region":"Rio de Janeiro","population":44518,"lat":"-22.16","lon":"-43.29"},{"id":"3515186","name":"Espírito Santo do Pinhal","region":"São Paulo","population":44471,"lat":"-22.19","lon":"-46.74"},{"id":"2929503","name":"São Sebastião do Passé","region":"Bahia","population":44430,"lat":"-12.51","lon":"-38.49"},{"id":"3516705","name":"Garça","region":"São Paulo","population":44409,"lat":"-22.21","lon":"-49.65"},{"id":"3541307","name":"Presidente Epitácio","region":"São Paulo","population":44389,"lat":"-21.76","lon":"-52.11"},{"id":"2709152","name":"Teotônio Vilela","region":"Alagoas","population":44372,"lat":"-9.9","lon":"-36.35"},{"id":"3534302","name":"Orlândia","region":"São Paulo","population":44360,"lat":"-20.71","lon":"-47.88"},{"id":"2412203","name":"São José de Mipibu","region":"Rio Grande do Norte","population":44236,"lat":"-6.07","lon":"-35.23"},{"id":"2929909","name":"Seabra","region":"Bahia","population":44234,"lat":"-12.41","lon":"-41.77"},{"id":"2512507","name":"Queimadas","region":"Paraíba","population":44179,"lat":"-7.35","lon":"-35.89"},{"id":"4313904","name":"Panambi","region":"Rio Grande do Sul","population":44128,"lat":"-28.29","lon":"-53.5"},{"id":"1300607","name":"Benjamin Constant","region":"Amazonas","population":43935,"lat":"-4.38","lon":"-70.03"},{"id":"2308500","name":"Mombaça","region":"Ceará","population":43858,"lat":"-5.74","lon":"-39.62"},{"id":"2300754","name":"Amontada","region":"Ceará","population":43829,"lat":"-3.36","lon":"-39.83"},{"id":"3130101","name":"Igarapé","region":"Minas Gerais","population":43817,"lat":"-20.06","lon":"-44.3"},{"id":"2923001","name":"Nova Viçosa","region":"Bahia","population":43783,"lat":"-17.89","lon":"-39.37"},{"id":"3159605","name":"Santa Rita do Sapucaí","region":"Minas Gerais","population":43753,"lat":"-22.25","lon":"-45.7"},{"id":"2933208","name":"Vera Cruz","region":"Bahia","population":43716,"lat":"-12.96","lon":"-38.6"},{"id":"2312205","name":"Santa Quitéria","region":"Ceará","population":43711,"lat":"-4.33","lon":"-40.15"},{"id":"2600500","name":"Águas Belas","region":"Pernambuco","population":43686,"lat":"-9.11","lon":"-37.12"},{"id":"4104006","name":"Campina Grande do Sul","region":"Paraná","population":43685,"lat":"-25.3","lon":"-49.05"},{"id":"3303807","name":"Paraty","region":"Rio de Janeiro","population":43680,"lat":"-23.21","lon":"-44.71"},{"id":"5210406","name":"Itaberaí","region":"Goiás","population":43622,"lat":"-16.02","lon":"-49.81"},{"id":"4318804","name":"São Lourenço do Sul","region":"Rio Grande do Sul","population":43540,"lat":"-31.36","lon":"-51.97"},{"id":"2604205","name":"Catende","region":"Pernambuco","population":43340,"lat":"-8.66","lon":"-35.71"},{"id":"3522703","name":"Itápolis","region":"São Paulo","population":43331,"lat":"-21.59","lon":"-48.81"},{"id":"2310506","name":"Pedra Branca","region":"Ceará","population":43309,"lat":"-5.45","lon":"-39.71"},{"id":"4317608","name":"Santo Antônio da Patrulha","region":"Rio Grande do Sul","population":43171,"lat":"-29.81","lon":"-50.52"},{"id":"1200609","name":"Tarauacá","region":"Acre","population":43151,"lat":"-8.16","lon":"-70.76"},{"id":"3556404","name":"Vargem Grande do Sul","region":"São Paulo","population":43110,"lat":"-21.83","lon":"-46.89"},{"id":"2109601","name":"Rosário","region":"Maranhão","population":42994,"lat":"-2.93","lon":"-44.23"},{"id":"3172004","name":"Visconde do Rio Branco","region":"Minas Gerais","population":42965,"lat":"-21.01","lon":"-42.84"},{"id":"2601409","name":"Barreiros","region":"Pernambuco","population":42764,"lat":"-8.81","lon":"-35.18"},{"id":"3304706","name":"Santo Antônio de Pádua","region":"Rio de Janeiro","population":42594,"lat":"-21.53","lon":"-42.18"},{"id":"2104057","name":"Estreito","region":"Maranhão","population":42527,"lat":"-6.56","lon":"-47.45"},{"id":"3554508","name":"Tietê","region":"São Paulo","population":42517,"lat":"-23.1","lon":"-47.71"},{"id":"4215000","name":"Rio Negrinho","region":"Santa Catarina","population":42495,"lat":"-26.25","lon":"-49.51"},{"id":"2109809","name":"Santa Helena","region":"Maranhão","population":42483,"lat":"-2.23","lon":"-45.29"},{"id":"3139003","name":"Machado","region":"Minas Gerais","population":42413,"lat":"-21.67","lon":"-45.91"},{"id":"5006309","name":"Paranaíba","region":"Mato Grosso do Sul","population":42276,"lat":"-19.67","lon":"-51.19"},{"id":"2922003","name":"Mucuri","region":"Bahia","population":42251,"lat":"-18.08","lon":"-39.55"},{"id":"2306553","name":"Itarema","region":"Ceará","population":42215,"lat":"-2.92","lon":"-39.91"},{"id":"3304755","name":"São Francisco de Itabapoana","region":"Rio de Janeiro","population":42210,"lat":"-21.46","lon":"-41.11"},{"id":"2803005","name":"Itabaianinha","region":"Sergipe","population":42166,"lat":"-11.27","lon":"-37.79"},{"id":"3101706","name":"Almenara","region":"Minas Gerais","population":42143,"lat":"-16.18","lon":"-40.69"},{"id":"2612604","name":"Santa Maria da Boa Vista","region":"Pernambuco","population":42100,"lat":"-8.8","lon":"-39.82"},{"id":"2305803","name":"Ipu","region":"Ceará","population":42058,"lat":"-4.32","lon":"-40.71"},{"id":"3524105","name":"Ituverava","region":"São Paulo","population":42045,"lat":"-20.33","lon":"-47.78"},{"id":"2112308","name":"Tuntum","region":"Maranhão","population":42040,"lat":"-5.25","lon":"-44.64"},{"id":"4306767","name":"Eldorado do Sul","region":"Rio Grande do Sul","population":41902,"lat":"-30.08","lon":"-51.61"},{"id":"2910503","name":"Entre Rios","region":"Bahia","population":41901,"lat":"-11.94","lon":"-38.08"},{"id":"3145604","name":"Oliveira","region":"Minas Gerais","population":41840,"lat":"-20.69","lon":"-44.82"},{"id":"2102002","name":"Bom Jardim","region":"Maranhão","population":41822,"lat":"-3.56","lon":"-45.99"},{"id":"1505908","name":"Porto de Moz","region":"Pará","population":41801,"lat":"-1.74","lon":"-52.23"},{"id":"4117503","name":"Paiçandu","region":"Paraná","population":41773,"lat":"-23.45","lon":"-52.04"},{"id":"1300805","name":"Borba","region":"Amazonas","population":41748,"lat":"-4.38","lon":"-59.59"},{"id":"2100600","name":"Amarante do Maranhão","region":"Maranhão","population":41729,"lat":"-5.56","lon":"-46.74"},{"id":"3157005","name":"Salinas","region":"Minas Gerais","population":41699,"lat":"-16.17","lon":"-42.29"},{"id":"2111508","name":"São Mateus do Maranhão","region":"Maranhão","population":41579,"lat":"-4.03","lon":"-44.47"},{"id":"3533502","name":"Novo Horizonte","region":"São Paulo","population":41414,"lat":"-21.46","lon":"-49.22"},{"id":"3102605","name":"Andradas","region":"Minas Gerais","population":41396,"lat":"-22.06","lon":"-46.56"},{"id":"3552106","name":"Socorro","region":"São Paulo","population":41352,"lat":"-22.59","lon":"-46.52"},{"id":"2103505","name":"Colinas","region":"Maranhão","population":41312,"lat":"-6.02","lon":"-44.24"},{"id":"4305355","name":"Charqueadas","region":"Rio Grande do Sul","population":41258,"lat":"-29.95","lon":"-51.62"},{"id":"2702900","name":"Girau do Ponciano","region":"Alagoas","population":41237,"lat":"-9.88","lon":"-36.82"},{"id":"2926004","name":"Remanso","region":"Bahia","population":41170,"lat":"-9.62","lon":"-42.08"},{"id":"3550100","name":"São Manuel","region":"São Paulo","population":41123,"lat":"-22.73","lon":"-48.57"},{"id":"5105150","name":"Juína","region":"Mato Grosso","population":41101,"lat":"-11.37","lon":"-58.74"},{"id":"1503093","name":"Goianésia do Pará","region":"Pará","population":41081,"lat":"-3.84","lon":"-49.09"},{"id":"3517406","name":"Guaíra","region":"São Paulo","population":41040,"lat":"-20.31","lon":"-48.31"},{"id":"4107207","name":"Dois Vizinhos","region":"Paraná","population":41038,"lat":"-25.73","lon":"-53.05"},{"id":"3501707","name":"Américo Brasiliense","region":"São Paulo","population":41032,"lat":"-21.72","lon":"-48.1"},{"id":"3204559","name":"Santa Maria de Jetibá","region":"Espírito Santo","population":41015,"lat":"-20.04","lon":"-40.74"},{"id":"2930204","name":"Sento Sé","region":"Bahia","population":40989,"lat":"-9.74","lon":"-41.88"},{"id":"2927002","name":"Rio Real","region":"Bahia","population":40976,"lat":"-11.48","lon":"-37.93"},{"id":"1506203","name":"Salinópolis","region":"Pará","population":40922,"lat":"-0.62","lon":"-47.35"},{"id":"1504901","name":"Muaná","region":"Pará","population":40906,"lat":"-1.52","lon":"-49.21"},{"id":"2314003","name":"Várzea Alegre","region":"Ceará","population":40903,"lat":"-6.78","lon":"-39.29"},{"id":"4217204","name":"São Miguel do Oeste","region":"Santa Catarina","population":40868,"lat":"-26.72","lon":"-53.51"},{"id":"1100130","name":"Machadinho d'Oeste","region":"Rondônia","population":40867,"lat":"-9.44","lon":"-61.98"},{"id":"5221601","name":"Uruaçu","region":"Goiás","population":40840,"lat":"-14.52","lon":"-49.14"},{"id":"3541604","name":"Promissão","region":"São Paulo","population":40828,"lat":"-21.53","lon":"-49.85"},{"id":"2305001","name":"Guaraciaba do Norte","region":"Ceará","population":40784,"lat":"-4.16","lon":"-40.74"},{"id":"3109006","name":"Brumadinho","region":"Minas Gerais","population":40666,"lat":"-20.14","lon":"-44.2"},{"id":"3144300","name":"Nanuque","region":"Minas Gerais","population":40665,"lat":"-17.83","lon":"-40.35"},{"id":"2918100","name":"Jeremoabo","region":"Bahia","population":40651,"lat":"-10.06","lon":"-38.34"},{"id":"2807105","name":"Simão Dias","region":"Sergipe","population":40606,"lat":"-10.73","lon":"-37.81"},{"id":"2200400","name":"Altos","region":"Piauí","population":40605,"lat":"-5.03","lon":"-42.46"},{"id":"2608800","name":"Lajedo","region":"Pernambuco","population":40589,"lat":"-8.66","lon":"-36.31"},{"id":"1502905","name":"Curuçá","region":"Pará","population":40584,"lat":"-0.73","lon":"-47.85"},{"id":"3518602","name":"Guariba","region":"São Paulo","population":40487,"lat":"-21.36","lon":"-48.22"},{"id":"3104205","name":"Arcos","region":"Minas Gerais","population":40380,"lat":"-20.28","lon":"-45.53"},{"id":"1100452","name":"Buritis","region":"Rondônia","population":40356,"lat":"-10.21","lon":"-63.82"},{"id":"2913705","name":"Inhambupe","region":"Bahia","population":40333,"lat":"-11.78","lon":"-38.35"},{"id":"1300300","name":"Autazes","region":"Amazonas","population":40290,"lat":"-3.57","lon":"-59.13"},{"id":"2929206","name":"São Francisco do Conde","region":"Bahia","population":40245,"lat":"-12.62","lon":"-38.68"},{"id":"3107109","name":"Boa Esperança","region":"Minas Gerais","population":40219,"lat":"-21.09","lon":"-45.56"},{"id":"1508084","name":"Tucumã","region":"Pará","population":40136,"lat":"-6.74","lon":"-51.16"},{"id":"3539509","name":"Pitangueiras","region":"São Paulo","population":40080,"lat":"-21","lon":"-48.22"},{"id":"1303908","name":"São Paulo de Olivença","region":"Amazonas","population":40073,"lat":"-3.37","lon":"-68.87"},{"id":"2411205","name":"Santa Cruz","region":"Rio Grande do Norte","population":39988,"lat":"-6.22","lon":"-36.02"},{"id":"2602209","name":"Bom Jardim","region":"Pernambuco","population":39983,"lat":"-7.79","lon":"-35.58"},{"id":"2925204","name":"Pojuca","region":"Bahia","population":39972,"lat":"-12.43","lon":"-38.32"},{"id":"4204806","name":"Curitibanos","region":"Santa Catarina","population":39893,"lat":"-27.28","lon":"-50.58"},{"id":"3145901","name":"Ouro Branco","region":"Minas Gerais","population":39867,"lat":"-20.52","lon":"-43.69"},{"id":"5103254","name":"Colniza","region":"Mato Grosso","population":39861,"lat":"-9.45","lon":"-59.22"},{"id":"2203701","name":"Esperantina","region":"Piauí","population":39848,"lat":"-3.9","lon":"-42.23"},{"id":"5000609","name":"Amambai","region":"Mato Grosso do Sul","population":39826,"lat":"-23.1","lon":"-55.22"},{"id":"3170800","name":"Várzea da Palma","region":"Minas Gerais","population":39803,"lat":"-17.59","lon":"-44.73"},{"id":"2928109","name":"Santa Maria da Vitória","region":"Bahia","population":39775,"lat":"-13.39","lon":"-44.19"},{"id":"3134400","name":"Iturama","region":"Minas Gerais","population":39690,"lat":"-19.72","lon":"-50.19"},{"id":"3541505","name":"Presidente Venceslau","region":"São Paulo","population":39583,"lat":"-21.87","lon":"-51.84"},{"id":"1500305","name":"Afuá","region":"Pará","population":39567,"lat":"-0.15","lon":"-50.38"},{"id":"4201307","name":"Araquari","region":"Santa Catarina","population":39524,"lat":"-26.37","lon":"-48.72"},{"id":"3135050","name":"Jaíba","region":"Minas Gerais","population":39388,"lat":"-15.33","lon":"-43.67"},{"id":"2205508","name":"José de Freitas","region":"Piauí","population":39336,"lat":"-4.75","lon":"-42.57"},{"id":"4111803","name":"Jacarezinho","region":"Paraná","population":39322,"lat":"-23.16","lon":"-49.96"},{"id":"4316402","name":"Rosário do Sul","region":"Rio Grande do Sul","population":39314,"lat":"-30.25","lon":"-54.91"},{"id":"2108207","name":"Pedreiras","region":"Maranhão","population":39191,"lat":"-4.57","lon":"-44.59"},{"id":"4218004","name":"Tijucas","region":"Santa Catarina","population":39155,"lat":"-27.24","lon":"-48.63"},{"id":"4321501","name":"Torres","region":"Rio Grande do Sul","population":39064,"lat":"-29.33","lon":"-49.72"},{"id":"2308005","name":"Massapê","region":"Ceará","population":39044,"lat":"-3.52","lon":"-40.34"},{"id":"1503200","name":"Igarapé-Açu","region":"Pará","population":39023,"lat":"-1.12","lon":"-47.61"},{"id":"3203320","name":"Marataízes","region":"Espírito Santo","population":38883,"lat":"-21.04","lon":"-40.82"},{"id":"5219308","name":"Santa Helena de Goiás","region":"Goiás","population":38808,"lat":"-17.81","lon":"-50.59"},{"id":"2207900","name":"Pedro II","region":"Piauí","population":38778,"lat":"-4.42","lon":"-41.45"},{"id":"2108306","name":"Penalva","region":"Maranhão","population":38731,"lat":"-3.29","lon":"-45.17"},{"id":"3304805","name":"São Fidélis","region":"Rio de Janeiro","population":38710,"lat":"-21.64","lon":"-41.74"},{"id":"4216305","name":"São João Batista","region":"Santa Catarina","population":38583,"lat":"-27.27","lon":"-48.84"},{"id":"3204708","name":"São Gabriel da Palha","region":"Espírito Santo","population":38522,"lat":"-19.01","lon":"-40.53"},{"id":"2600708","name":"Aliança","region":"Pernambuco","population":38397,"lat":"-7.6","lon":"-35.23"},{"id":"2602001","name":"Bodocó","region":"Pernambuco","population":38378,"lat":"-7.77","lon":"-39.94"},{"id":"1301100","name":"Careiro","region":"Amazonas","population":38348,"lat":"-3.76","lon":"-60.36"},{"id":"4306601","name":"Dom Pedrito","region":"Rio Grande do Sul","population":38339,"lat":"-30.98","lon":"-54.67"},{"id":"2306256","name":"Itaitinga","region":"Ceará","population":38325,"lat":"-3.96","lon":"-38.52"},{"id":"2110203","name":"Santa Rita","region":"Maranhão","population":38298,"lat":"-3.14","lon":"-44.32"},{"id":"4315701","name":"Rio Pardo","region":"Rio Grande do Sul","population":38265,"lat":"-29.98","lon":"-52.37"},{"id":"5007208","name":"Rio Brilhante","region":"Mato Grosso do Sul","population":38186,"lat":"-21.8","lon":"-54.54"},{"id":"3141108","name":"Matozinhos","region":"Minas Gerais","population":38151,"lat":"-19.55","lon":"-44.08"},{"id":"2602308","name":"Bonito","region":"Pernambuco","population":38117,"lat":"-8.47","lon":"-35.72"},{"id":"2305902","name":"Ipueiras","region":"Ceará","population":38114,"lat":"-4.54","lon":"-40.71"},{"id":"1502152","name":"Canaã dos Carajás","region":"Pará","population":38103,"lat":"-6.49","lon":"-49.87"},{"id":"3112307","name":"Capelinha","region":"Minas Gerais","population":38057,"lat":"-17.69","lon":"-42.51"},{"id":"1303106","name":"Nova Olinda do Norte","region":"Amazonas","population":38026,"lat":"-3.88","lon":"-59.09"},{"id":"3521002","name":"Iperó","region":"São Paulo","population":37964,"lat":"-23.35","lon":"-47.68"},{"id":"2929305","name":"São Gonçalo dos Campos","region":"Bahia","population":37942,"lat":"-12.43","lon":"-38.96"},{"id":"2310704","name":"Pentecoste","region":"Ceará","population":37900,"lat":"-3.79","lon":"-39.27"},{"id":"3152204","name":"Porteirinha","region":"Minas Gerais","population":37864,"lat":"-15.74","lon":"-43.02"},{"id":"3201407","name":"Castelo","region":"Espírito Santo","population":37747,"lat":"-20.6","lon":"-41.18"},{"id":"2910602","name":"Esplanada","region":"Bahia","population":37578,"lat":"-11.79","lon":"-37.94"},{"id":"4314803","name":"Portão","region":"Rio Grande do Sul","population":37561,"lat":"-29.7","lon":"-51.24"},{"id":"2928000","name":"Santaluz","region":"Bahia","population":37531,"lat":"-11.25","lon":"-39.37"},{"id":"4109609","name":"Guaratuba","region":"Paraná","population":37527,"lat":"-25.88","lon":"-48.57"},{"id":"4310603","name":"Itaqui","region":"Rio Grande do Sul","population":37489,"lat":"-29.12","lon":"-56.55"},{"id":"2408300","name":"Nova Cruz","region":"Rio Grande do Norte","population":37450,"lat":"-6.47","lon":"-35.43"},{"id":"2901007","name":"Amargosa","region":"Bahia","population":37441,"lat":"-13.02","lon":"-39.6"},{"id":"5218300","name":"Posse","region":"Goiás","population":37414,"lat":"-14.09","lon":"-46.36"},{"id":"2600104","name":"Afogados da Ingazeira","region":"Pernambuco","population":37404,"lat":"-7.75","lon":"-37.63"},{"id":"3500709","name":"Agudos","region":"São Paulo","population":37401,"lat":"-22.46","lon":"-48.98"},{"id":"2605103","name":"Custódia","region":"Pernambuco","population":37375,"lat":"-8.08","lon":"-37.64"},{"id":"2613107","name":"São Caetano","region":"Pernambuco","population":37368,"lat":"-8.32","lon":"-36.14"},{"id":"3525706","name":"José Bonifácio","region":"São Paulo","population":37366,"lat":"-21.05","lon":"-49.68"},{"id":"4310108","name":"Igrejinha","region":"Rio Grande do Sul","population":37340,"lat":"-29.57","lon":"-50.79"},{"id":"2804508","name":"Nossa Senhora da Glória","region":"Sergipe","population":37324,"lat":"-10.21","lon":"-37.41"},{"id":"3300605","name":"Bom Jesus do Itabapoana","region":"Rio de Janeiro","population":37203,"lat":"-21.13","lon":"-41.68"},{"id":"1303536","name":"Presidente Figueiredo","region":"Amazonas","population":37193,"lat":"-2.03","lon":"-60.02"},{"id":"2207009","name":"Oeiras","region":"Piauí","population":37085,"lat":"-7.02","lon":"-42.13"},{"id":"3306206","name":"Vassouras","region":"Rio de Janeiro","population":37083,"lat":"-22.4","lon":"-43.66"},{"id":"2600401","name":"Água Preta","region":"Pernambuco","population":37082,"lat":"-8.7","lon":"-35.53"},{"id":"3125101","name":"Extrema","region":"Minas Gerais","population":36951,"lat":"-22.85","lon":"-46.31"},{"id":"2611002","name":"Petrolândia","region":"Pernambuco","population":36901,"lat":"-9.06","lon":"-38.3"},